[{"Color": "#fecc5c", "Time": "04:03:19", "Lon": "13.688", "Place": "Marsica", "Lat": "41.879", "Radius": 6.0, "Magn": "2", "Alpha": 0.02, "Date": "2013/10/14", "Prof": "10.1", "Id": "idw1zctsbRj"}, {"Color": "#fd8d3c", "Time": "13:00:55", "Lon": "12.178", "Place": "Tirreno  meridionale  B", "Lat": "38.221", "Radius": 10.0, "Magn": "3.4", "Alpha": 0.02, "Date": "2013/10/14", "Prof": "23.8", "Id": "idu5DoANhzs"}, {"Color": "#fecc5c", "Time": "15:16:17", "Lon": "15.239", "Place": "Isole  Lipari", "Lat": "38.842", "Radius": 6.0, "Magn": "2", "Alpha": 0.02, "Date": "2013/10/14", "Prof": "9.4", "Id": "idPScUpyq3M"}, {"Color": "#fecc5c", "Time": "16:26:33", "Lon": "8.987", "Place": "Appennino  ligure", "Lat": "44.8", "Radius": 6.0, "Magn": "2.4", "Alpha": 0.02, "Date": "2013/10/14", "Prof": "9.9", "Id": "idVXp8pfKzg"}, {"Color": "#fd8d3c", "Time": "19:48:49", "Lon": "12.071", "Place": "Tirreno  meridionale  B", "Lat": "38.206", "Radius": 9.0, "Magn": "3.2", "Alpha": 0.02, "Date": "2013/10/14", "Prof": "21.4", "Id": "idME5z4uFJp"}, {"Color": "#fecc5c", "Time": "22:07:57", "Lon": "12.585", "Place": "Bacino  di  Gubbio", "Lat": "43.328", "Radius": 6.0, "Magn": "2.1", "Alpha": 0.02, "Date": "2013/10/14", "Prof": "9", "Id": "idfRPSrM5Ym"}, {"Color": "#bd0026", "Time": "00:12:33", "Lon": "124.08", "Place": "Mindanao, Philippine Islands", "Lat": "9.9", "Radius": 14.0, "Magn": "7.2", "Alpha": 0.05, "Date": "2013/10/15", "Prof": "48", "Id": "id63dWD4rJA"}, {"Color": "#fd8d3c", "Time": "02:47:13", "Lon": "7.256", "Place": "Alpi  Cozie", "Lat": "44.408", "Radius": 8.0, "Magn": "3.4", "Alpha": 0.05, "Date": "2013/10/15", "Prof": "16", "Id": "idf9QjmwF6T"}, {"Color": "#fecc5c", "Time": "10:48:03", "Lon": "13.773", "Place": "Adriatico  centro-sett.", "Lat": "43.63", "Radius": 6.0, "Magn": "2", "Alpha": 0.05, "Date": "2013/10/15", "Prof": "10.5", "Id": "idY1knbQhIe"}, {"Color": "#fecc5c", "Time": "18:03:17", "Lon": "15.517", "Place": "Isole  Lipari", "Lat": "38.483", "Radius": 23.0, "Magn": "2.4", "Alpha": 0.05, "Date": "2013/10/15", "Prof": "132.6", "Id": "id9nbQjZskW"}, {"Color": "#fecc5c", "Time": "18:57:54", "Lon": "10.2", "Place": "Lunigiana", "Lat": "44.209", "Radius": 7.0, "Magn": "2.2", "Alpha": 0.05, "Date": "2013/10/15", "Prof": "10.6", "Id": "idWQWuDgtlE"}, {"Color": "#bd0026", "Time": "19:33:12", "Lon": "26.59", "Place": "Romania", "Lat": "45.63", "Radius": 24.0, "Magn": "4.8", "Alpha": 0.05, "Date": "2013/10/15", "Prof": "150", "Id": "idAcVKI6YaF"}, {"Color": "#bd0026", "Time": "10:31:00", "Lon": "154.9", "Place": "Bougainville - Solomon Islands region", "Lat": "-6.6", "Radius": 11.0, "Magn": "7.1", "Alpha": 0.07, "Date": "2013/10/16", "Prof": "33", "Id": "idlVFvGbFNV"}, {"Color": "#fecc5c", "Time": "13:34:25", "Lon": "13.942", "Place": "Monti  della  Meta-Le  Mainarde", "Lat": "41.682", "Radius": 7.0, "Magn": "2.3", "Alpha": 0.07, "Date": "2013/10/16", "Prof": "13.8", "Id": "idxSVnQ42kK"}, {"Color": "#fecc5c", "Time": "01:28:33", "Lon": "15.291", "Place": "Golfo  di  Catania", "Lat": "37.688", "Radius": 10.0, "Magn": "2", "Alpha": 0.09, "Date": "2013/10/17", "Prof": "23.5", "Id": "idwenj5Sf2k"}, {"Color": "#fecc5c", "Time": "04:53:19", "Lon": "16.461", "Place": "La  Sila", "Lat": "39.182", "Radius": 6.0, "Magn": "2", "Alpha": 0.09, "Date": "2013/10/17", "Prof": "9", "Id": "idxunFJq99w"}, {"Color": "#fd8d3c", "Time": "10:27:08", "Lon": "6.264", "Place": "Western Mediterranean Sea", "Lat": "42.924", "Radius": 6.0, "Magn": "2.6", "Alpha": 0.09, "Date": "2013/10/17", "Prof": "10", "Id": "idux0HVq5Es"}, {"Color": "#fecc5c", "Time": "11:32:39", "Lon": "11.238", "Place": "Pianura  padana  emiliana", "Lat": "44.861", "Radius": 6.0, "Magn": "2.2", "Alpha": 0.09, "Date": "2013/10/17", "Prof": "8.5", "Id": "iddbvsc55MR"}, {"Color": "#fd8d3c", "Time": "20:01:59", "Lon": "13.799", "Place": "Adriatico  centro-sett.", "Lat": "43.528", "Radius": 6.0, "Magn": "2.7", "Alpha": 0.09, "Date": "2013/10/17", "Prof": "10.4", "Id": "idr47EzNPDl"}, {"Color": "#fecc5c", "Time": "04:55:32", "Lon": "13.804", "Place": "Adriatico  centro-sett.", "Lat": "43.541", "Radius": 6.0, "Magn": "2.2", "Alpha": 0.12, "Date": "2013/10/18", "Prof": "10.3", "Id": "id0BH6kF2we"}, {"Color": "#fd8d3c", "Time": "08:03:44", "Lon": "14.914", "Place": "Costa  siciliana  settentrionale", "Lat": "38.111", "Radius": 8.0, "Magn": "2.7", "Alpha": 0.12, "Date": "2013/10/18", "Prof": "14.6", "Id": "idcKlMio7kM"}, {"Color": "#fd8d3c", "Time": "11:05:21", "Lon": "14.966", "Place": "Monti  Iblei", "Lat": "36.785", "Radius": 3.0, "Magn": "3", "Alpha": 0.12, "Date": "2013/10/18", "Prof": "1.8", "Id": "idpi1WdddVM"}, {"Color": "#fecc5c", "Time": "11:14:24", "Lon": "14.867", "Place": "Isole  Lipari", "Lat": "38.361", "Radius": 6.0, "Magn": "2.2", "Alpha": 0.12, "Date": "2013/10/18", "Prof": "7.6", "Id": "idPXOAPV6oI"}, {"Color": "#fd8d3c", "Time": "11:44:00", "Lon": "10.289", "Place": "Costa  toscana  settentrionale", "Lat": "43.685", "Radius": 6.0, "Magn": "2.6", "Alpha": 0.12, "Date": "2013/10/18", "Prof": "10.3", "Id": "idwz5tkE4Dk"}, {"Color": "#fecc5c", "Time": "19:44:21", "Lon": "16.151", "Place": "Le  Serre", "Lat": "38.382", "Radius": 7.0, "Magn": "2", "Alpha": 0.12, "Date": "2013/10/18", "Prof": "10.9", "Id": "id5ECYcDp6C"}, {"Color": "#fd8d3c", "Time": "20:50:52", "Lon": "15.205", "Place": "Irpinia", "Lat": "40.798", "Radius": 8.0, "Magn": "3", "Alpha": 0.12, "Date": "2013/10/18", "Prof": "14.3", "Id": "idtj3TLlYTl"}, {"Color": "#fd8d3c", "Time": "02:15:28", "Lon": "12.526", "Place": "Bacino  di  Gubbio", "Lat": "43.377", "Radius": 6.0, "Magn": "3.2", "Alpha": 0.14, "Date": "2013/10/19", "Prof": "8.2", "Id": "idhb0RhQ0Sz"}, {"Color": "#fecc5c", "Time": "02:19:34", "Lon": "12.532", "Place": "Bacino  di  Gubbio", "Lat": "43.38", "Radius": 6.0, "Magn": "2.1", "Alpha": 0.14, "Date": "2013/10/19", "Prof": "8.1", "Id": "idpZf2j3VtC"}, {"Color": "#fecc5c", "Time": "05:33:35", "Lon": "12.529", "Place": "Bacino  di  Gubbio", "Lat": "43.379", "Radius": 6.0, "Magn": "2", "Alpha": 0.14, "Date": "2013/10/19", "Prof": "9.2", "Id": "idpRXfOeddU"}, {"Color": "#fd8d3c", "Time": "11:04:26", "Lon": "15.152", "Place": "Piana  del  Sele", "Lat": "40.602", "Radius": 6.0, "Magn": "2.6", "Alpha": 0.14, "Date": "2013/10/19", "Prof": "10", "Id": "idWc3L0h9R2"}, {"Color": "#fd8d3c", "Time": "11:08:02", "Lon": "15.169", "Place": "Piana  del  Sele", "Lat": "40.59", "Radius": 6.0, "Magn": "2.7", "Alpha": 0.14, "Date": "2013/10/19", "Prof": "9.5", "Id": "idvde9b03Tk"}, {"Color": "#fd8d3c", "Time": "12:29:35", "Lon": "10.274", "Place": "Costa  toscana  settentrionale", "Lat": "43.675", "Radius": 6.0, "Magn": "3.4", "Alpha": 0.14, "Date": "2013/10/19", "Prof": "9.9", "Id": "idrcQc9rGKx"}, {"Color": "#fecc5c", "Time": "12:32:28", "Lon": "10.288", "Place": "Costa  toscana  settentrionale", "Lat": "43.682", "Radius": 6.0, "Magn": "2", "Alpha": 0.14, "Date": "2013/10/19", "Prof": "10.4", "Id": "id8YspCUx6c"}, {"Color": "#fd8d3c", "Time": "16:21:57", "Lon": "8.999", "Place": "Appennino  ligure", "Lat": "44.77", "Radius": 9.0, "Magn": "3.4", "Alpha": 0.14, "Date": "2013/10/19", "Prof": "22.3", "Id": "idABoI2pJ1J"}, {"Color": "#bd0026", "Time": "17:54:56", "Lon": "-110.178", "Place": "Gulf of California, Mexico", "Lat": "26.27", "Radius": 2.0, "Magn": "6.5", "Alpha": 0.14, "Date": "2013/10/19", "Prof": "1", "Id": "id5QYuYuvCD"}, {"Color": "#fecc5c", "Time": "19:15:18", "Lon": "15.903", "Place": "Costa  calabra  occidentale", "Lat": "39.077", "Radius": 16.0, "Magn": "2", "Alpha": 0.14, "Date": "2013/10/19", "Prof": "60.8", "Id": "id81vl9gb1Q"}, {"Color": "#fecc5c", "Time": "01:20:58", "Lon": "13.332", "Place": "Monti  Sibillini", "Lat": "42.857", "Radius": 10.0, "Magn": "2", "Alpha": 0.16, "Date": "2013/10/20", "Prof": "22.9", "Id": "idAoa9vD4J2"}, {"Color": "#fecc5c", "Time": "07:51:08", "Lon": "9.022", "Place": "Appennino  ligure", "Lat": "44.732", "Radius": 9.0, "Magn": "2.3", "Alpha": 0.16, "Date": "2013/10/20", "Prof": "20.9", "Id": "idfUp0Vg2Mj"}, {"Color": "#fecc5c", "Time": "07:53:21", "Lon": "9.016", "Place": "Appennino  ligure", "Lat": "44.717", "Radius": 6.0, "Magn": "2.4", "Alpha": 0.16, "Date": "2013/10/20", "Prof": "9.7", "Id": "iddyusID8Rk"}, {"Color": "#fecc5c", "Time": "03:06:42", "Lon": "12.917", "Place": "Valle  del  Belice", "Lat": "37.632", "Radius": 11.0, "Magn": "2", "Alpha": 0.19, "Date": "2013/10/21", "Prof": "30.8", "Id": "idjMSx3GvNG"}, {"Color": "#fecc5c", "Time": "09:49:03", "Lon": "12.547", "Place": "Bacino  di  Gubbio", "Lat": "43.379", "Radius": 5.0, "Magn": "2", "Alpha": 0.19, "Date": "2013/10/21", "Prof": "5.2", "Id": "idSFQBXAE7T"}, {"Color": "#fecc5c", "Time": "12:42:48", "Lon": "13.723", "Place": "Alpi  Giulie", "Lat": "46.317", "Radius": 4.0, "Magn": "2.4", "Alpha": 0.19, "Date": "2013/10/21", "Prof": "3.1", "Id": "idAVZOYX7LG"}, {"Color": "#fecc5c", "Time": "15:00:36", "Lon": "14.813", "Place": "Isole  Lipari", "Lat": "38.458", "Radius": 4.0, "Magn": "2", "Alpha": 0.19, "Date": "2013/10/21", "Prof": "4.4", "Id": "idONAwnUXzk"}, {"Color": "#fd8d3c", "Time": "19:47:39", "Lon": "12.743", "Place": "Valle  del  Topino", "Lat": "42.777", "Radius": 5.0, "Magn": "2.6", "Alpha": 0.19, "Date": "2013/10/21", "Prof": "6.9", "Id": "idTjHgRXCnl"}, {"Color": "#fecc5c", "Time": "01:13:33", "Lon": "15.325", "Place": "Isole  Lipari", "Lat": "38.565", "Radius": 29.0, "Magn": "2.2", "Alpha": 0.21, "Date": "2013/10/22", "Prof": "204.8", "Id": "idSkhqf6t2E"}, {"Color": "#fd8d3c", "Time": "03:34:51", "Lon": "10.152", "Place": "Lunigiana", "Lat": "44.199", "Radius": 6.0, "Magn": "2.5", "Alpha": 0.21, "Date": "2013/10/22", "Prof": "9.6", "Id": "idXjGs13QNj"}, {"Color": "#fecc5c", "Time": "15:29:59", "Lon": "10.201", "Place": "Alpi  Apuane", "Lat": "44.186", "Radius": 6.0, "Magn": "2.4", "Alpha": 0.21, "Date": "2013/10/22", "Prof": "9.3", "Id": "idzJA5bQYT3"}, {"Color": "#fd8d3c", "Time": "00:31:22", "Lon": "13.411", "Place": "Monti  della  Laga", "Lat": "42.551", "Radius": 9.0, "Magn": "3.2", "Alpha": 0.23, "Date": "2013/10/23", "Prof": "18.2", "Id": "ids7w57T6Cg"}, {"Color": "#fecc5c", "Time": "03:01:09", "Lon": "15.276", "Place": "Irpinia", "Lat": "40.766", "Radius": 6.0, "Magn": "2", "Alpha": 0.23, "Date": "2013/10/23", "Prof": "8.8", "Id": "idPhm5G0DsB"}, {"Color": "#fd8d3c", "Time": "03:45:41", "Lon": "12.754", "Place": "Valle  del  Topino", "Lat": "42.778", "Radius": 6.0, "Magn": "2.6", "Alpha": 0.23, "Date": "2013/10/23", "Prof": "8", "Id": "idYfm4zCC6Q"}, {"Color": "#fecc5c", "Time": "10:01:49", "Lon": "15.205", "Place": "Isole  Lipari", "Lat": "38.442", "Radius": 24.0, "Magn": "2.3", "Alpha": 0.23, "Date": "2013/10/23", "Prof": "147.4", "Id": "idPofWu85jT"}, {"Color": "#fd8d3c", "Time": "11:06:21", "Lon": "12.653", "Place": "Monti  Martani", "Lat": "42.796", "Radius": 6.0, "Magn": "2.9", "Alpha": 0.23, "Date": "2013/10/23", "Prof": "8", "Id": "id1BCd2JebH"}, {"Color": "#fecc5c", "Time": "02:41:26", "Lon": "14.845", "Place": "Golfi  di  Patti  e  di  Milazzo", "Lat": "38.237", "Radius": 22.0, "Magn": "2.1", "Alpha": 0.26, "Date": "2013/10/24", "Prof": "124.4", "Id": "id2aRaKpAKh"}, {"Color": "#fecc5c", "Time": "04:32:00", "Lon": "12.881", "Place": "Reatino", "Lat": "42.41", "Radius": 6.0, "Magn": "2", "Alpha": 0.26, "Date": "2013/10/24", "Prof": "8", "Id": "idNomzHh2Mh"}, {"Color": "#fecc5c", "Time": "07:32:29", "Lon": "11.95", "Place": "Casentino", "Lat": "43.795", "Radius": 5.0, "Magn": "2.4", "Alpha": 0.26, "Date": "2013/10/24", "Prof": "6.5", "Id": "idmeEjL9LUX"}, {"Color": "#fd8d3c", "Time": "09:17:00", "Lon": "10.503", "Place": "Frignano", "Lat": "44.269", "Radius": 8.0, "Magn": "3.1", "Alpha": 0.28, "Date": "2013/10/25", "Prof": "17.8", "Id": "idomphzHVcB"}, {"Color": "#fecc5c", "Time": "10:38:22", "Lon": "15.002", "Place": "Etna", "Lat": "37.864", "Radius": 11.0, "Magn": "2.1", "Alpha": 0.28, "Date": "2013/10/25", "Prof": "29.3", "Id": "idRp9vLjpWY"}, {"Color": "#fecc5c", "Time": "12:04:31", "Lon": "15.004", "Place": "Etna", "Lat": "37.856", "Radius": 12.0, "Magn": "2.1", "Alpha": 0.28, "Date": "2013/10/25", "Prof": "33.8", "Id": "idmZJ1Q1dFN"}, {"Color": "#fd8d3c", "Time": "12:05:00", "Lon": "14.99", "Place": "Etna", "Lat": "37.84", "Radius": 9.0, "Magn": "2.6", "Alpha": 0.28, "Date": "2013/10/25", "Prof": "22.5", "Id": "idA0jVsNNxR"}, {"Color": "#fecc5c", "Time": "12:06:12", "Lon": "14.991", "Place": "Etna", "Lat": "37.856", "Radius": 11.0, "Magn": "2", "Alpha": 0.28, "Date": "2013/10/25", "Prof": "29.7", "Id": "idMkpzm95D5"}, {"Color": "#fecc5c", "Time": "12:09:33", "Lon": "14.986", "Place": "Etna", "Lat": "37.818", "Radius": 6.0, "Magn": "2", "Alpha": 0.28, "Date": "2013/10/25", "Prof": "9.2", "Id": "id9PgXafpyB"}, {"Color": "#fecc5c", "Time": "12:10:30", "Lon": "15.016", "Place": "Etna", "Lat": "37.851", "Radius": 11.0, "Magn": "2.2", "Alpha": 0.28, "Date": "2013/10/25", "Prof": "29.5", "Id": "id6ZQOO35Jc"}, {"Color": "#fecc5c", "Time": "12:11:30", "Lon": "14.998", "Place": "Etna", "Lat": "37.837", "Radius": 10.0, "Magn": "2.1", "Alpha": 0.28, "Date": "2013/10/25", "Prof": "24.9", "Id": "iddZgDcZGiq"}, {"Color": "#fecc5c", "Time": "12:24:38", "Lon": "11.141", "Place": "Pianura  padana  lombarda", "Lat": "44.957", "Radius": 4.0, "Magn": "2.2", "Alpha": 0.28, "Date": "2013/10/25", "Prof": "5", "Id": "id2RB0nI4Lk"}, {"Color": "#fecc5c", "Time": "12:53:13", "Lon": "14.989", "Place": "Etna", "Lat": "37.844", "Radius": 10.0, "Magn": "2.2", "Alpha": 0.28, "Date": "2013/10/25", "Prof": "25.7", "Id": "idOX4Ym1gC1"}, {"Color": "#fecc5c", "Time": "12:59:05", "Lon": "14.997", "Place": "Etna", "Lat": "37.844", "Radius": 11.0, "Magn": "2", "Alpha": 0.28, "Date": "2013/10/25", "Prof": "29.9", "Id": "idhSDUlDHEB"}, {"Color": "#fecc5c", "Time": "13:46:16", "Lon": "15.001", "Place": "Etna", "Lat": "37.875", "Radius": 10.0, "Magn": "2.1", "Alpha": 0.28, "Date": "2013/10/25", "Prof": "26.4", "Id": "idScccTQqAO"}, {"Color": "#fecc5c", "Time": "14:32:21", "Lon": "15.009", "Place": "Etna", "Lat": "37.818", "Radius": 13.0, "Magn": "2.1", "Alpha": 0.28, "Date": "2013/10/25", "Prof": "39.6", "Id": "idm7VozphXx"}, {"Color": "#fecc5c", "Time": "15:41:01", "Lon": "14.991", "Place": "Etna", "Lat": "37.837", "Radius": 10.0, "Magn": "2.2", "Alpha": 0.28, "Date": "2013/10/25", "Prof": "26.6", "Id": "idGIRawydHo"}, {"Color": "#bd0026", "Time": "17:10:16", "Lon": "144.663", "Place": "Off east coast of Honshu, Japan", "Lat": "37.194", "Radius": 6.0, "Magn": "7.3", "Alpha": 0.28, "Date": "2013/10/25", "Prof": "10", "Id": "idQFRUjuy6J"}, {"Color": "#fecc5c", "Time": "17:54:29", "Lon": "13.896", "Place": "Bacino  di  Sulmona", "Lat": "42.177", "Radius": 6.0, "Magn": "2", "Alpha": 0.28, "Date": "2013/10/25", "Prof": "10.2", "Id": "idWJ4xPXB76"}, {"Color": "#fd8d3c", "Time": "01:20:25", "Lon": "15.002", "Place": "Etna", "Lat": "37.855", "Radius": 10.0, "Magn": "2.8", "Alpha": 0.3, "Date": "2013/10/26", "Prof": "24", "Id": "id6zafkefob"}, {"Color": "#fecc5c", "Time": "01:23:20", "Lon": "14.999", "Place": "Etna", "Lat": "37.845", "Radius": 10.0, "Magn": "2.2", "Alpha": 0.3, "Date": "2013/10/26", "Prof": "27.3", "Id": "idup0IzddhS"}, {"Color": "#fecc5c", "Time": "03:11:56", "Lon": "15.005", "Place": "Etna", "Lat": "37.845", "Radius": 11.0, "Magn": "2.3", "Alpha": 0.3, "Date": "2013/10/26", "Prof": "29.2", "Id": "idVR6Xnnpv7"}, {"Color": "#ffffb2", "Time": "07:59:27", "Lon": "16.225", "Place": "Pollino", "Lat": "39.834", "Radius": 6.0, "Magn": "1.5", "Alpha": 0.3, "Date": "2013/10/26", "Prof": "8.2", "Id": "iddNQP1whtk"}, {"Color": "#fecc5c", "Time": "09:55:01", "Lon": "13.617", "Place": "Tirreno  meridionale  A", "Lat": "38.342", "Radius": 6.0, "Magn": "2.1", "Alpha": 0.3, "Date": "2013/10/26", "Prof": "10.5", "Id": "idhFsp1nSlc"}, {"Color": "#fecc5c", "Time": "20:46:42", "Lon": "14.97", "Place": "Etna", "Lat": "37.85", "Radius": 10.0, "Magn": "2.2", "Alpha": 0.3, "Date": "2013/10/26", "Prof": "25", "Id": "idpwjZ2taob"}, {"Color": "#fecc5c", "Time": "21:39:49", "Lon": "10.835", "Place": "Appennino  modenese", "Lat": "44.441", "Radius": 14.0, "Magn": "2", "Alpha": 0.3, "Date": "2013/10/26", "Prof": "46.4", "Id": "ido0RK3YlJ9"}, {"Color": "#fd8d3c", "Time": "07:26:30", "Lon": "8.976", "Place": "Appennino  ligure", "Lat": "44.771", "Radius": 6.0, "Magn": "3.1", "Alpha": 0.33, "Date": "2013/10/27", "Prof": "10.4", "Id": "idDzynB4kmr"}, {"Color": "#fecc5c", "Time": "18:30:19", "Lon": "15.798", "Place": "Appennino  Lucano", "Lat": "40.544", "Radius": 10.0, "Magn": "2", "Alpha": 0.33, "Date": "2013/10/27", "Prof": "23.1", "Id": "idKbpS1JWKP"}, {"Color": "#fd8d3c", "Time": "23:42:07", "Lon": "14.031", "Place": "Marsica", "Lat": "41.751", "Radius": 6.0, "Magn": "2.6", "Alpha": 0.33, "Date": "2013/10/27", "Prof": "9.7", "Id": "id1XJ0jLrvw"}, {"Color": "#fecc5c", "Time": "04:13:11", "Lon": "14.492", "Place": "Monti  Nebrodi", "Lat": "37.856", "Radius": 6.0, "Magn": "2.4", "Alpha": 0.35, "Date": "2013/10/28", "Prof": "10.5", "Id": "idi7tG1ccNf"}, {"Color": "#fecc5c", "Time": "04:33:27", "Lon": "9.278", "Place": "Valle  del  Trebbia", "Lat": "44.584", "Radius": 6.0, "Magn": "2.2", "Alpha": 0.35, "Date": "2013/10/28", "Prof": "8", "Id": "idAseLLYETz"}, {"Color": "#fd8d3c", "Time": "06:23:54", "Lon": "15.394", "Place": "Isole  Lipari", "Lat": "38.682", "Radius": 29.0, "Magn": "2.9", "Alpha": 0.35, "Date": "2013/10/28", "Prof": "203.2", "Id": "idgXtsZKWSX"}, {"Color": "#fd8d3c", "Time": "06:23:54", "Lon": "15.14", "Place": "Isole  Lipari", "Lat": "38.405", "Radius": 28.0, "Magn": "2.6", "Alpha": 0.35, "Date": "2013/10/28", "Prof": "189.2", "Id": "idF7u5HpuDI"}, {"Color": "#fecc5c", "Time": "12:08:41", "Lon": "13.936", "Place": "Adriatico  centro-sett.", "Lat": "43.698", "Radius": 9.0, "Magn": "2.3", "Alpha": 0.35, "Date": "2013/10/28", "Prof": "20.5", "Id": "idx0BLfgayl"}, {"Color": "#fd8d3c", "Time": "17:09:27", "Lon": "14.938", "Place": "Etna", "Lat": "37.769", "Radius": 10.0, "Magn": "2.6", "Alpha": 0.35, "Date": "2013/10/28", "Prof": "23.9", "Id": "idddyurGaXp"}, {"Color": "#fecc5c", "Time": "21:27:22", "Lon": "15.776", "Place": "Stretto  di  Messina", "Lat": "38.252", "Radius": 22.0, "Magn": "2.2", "Alpha": 0.35, "Date": "2013/10/28", "Prof": "126", "Id": "idp25a55d4p"}, {"Color": "#fecc5c", "Time": "02:11:29", "Lon": "15.333", "Place": "Golfo  di  Augusta", "Lat": "36.995", "Radius": 7.0, "Magn": "2.2", "Alpha": 0.37, "Date": "2013/10/29", "Prof": "11.4", "Id": "idTZr0HjWiH"}, {"Color": "#fecc5c", "Time": "04:36:57", "Lon": "16.183", "Place": "Valle  del  Crati", "Lat": "39.353", "Radius": 4.0, "Magn": "2.1", "Alpha": 0.37, "Date": "2013/10/29", "Prof": "4.4", "Id": "idSYpEnw45V"}, {"Color": "#fecc5c", "Time": "16:53:59", "Lon": "15", "Place": "Etna", "Lat": "37.834", "Radius": 10.0, "Magn": "2", "Alpha": 0.37, "Date": "2013/10/29", "Prof": "25.6", "Id": "idDQCd1O0sr"}, {"Color": "#fecc5c", "Time": "20:16:22", "Lon": "15.533", "Place": "Isole  Lipari", "Lat": "38.472", "Radius": 23.0, "Magn": "2.1", "Alpha": 0.37, "Date": "2013/10/29", "Prof": "133.5", "Id": "id2X7AkuIxE"}, {"Color": "#fecc5c", "Time": "22:12:59", "Lon": "15.005", "Place": "Isole  Lipari", "Lat": "38.374", "Radius": 7.0, "Magn": "2.1", "Alpha": 0.37, "Date": "2013/10/29", "Prof": "12.7", "Id": "ideClaDikrZ"}, {"Color": "#fecc5c", "Time": "22:59:27", "Lon": "10.823", "Place": "Austria", "Lat": "47.276", "Radius": 6.0, "Magn": "2.3", "Alpha": 0.37, "Date": "2013/10/29", "Prof": "8.2", "Id": "idlet0RhfOq"}, {"Color": "#fecc5c", "Time": "01:06:43", "Lon": "13.316", "Place": "Tirreno  meridionale  A", "Lat": "38.511", "Radius": 6.0, "Magn": "2.4", "Alpha": 0.4, "Date": "2013/10/30", "Prof": "9.8", "Id": "idcQlmGniT9"}, {"Color": "#fd8d3c", "Time": "02:35:20", "Lon": "15.327", "Place": "Isole  Lipari", "Lat": "38.749", "Radius": 30.0, "Magn": "2.6", "Alpha": 0.4, "Date": "2013/10/30", "Prof": "227", "Id": "idXke85ZPjE"}, {"Color": "#bd0026", "Time": "02:51:51", "Lon": "-73.32", "Place": "Off coast of central Chile", "Lat": "-34.41", "Radius": 6.0, "Magn": "6.1", "Alpha": 0.4, "Date": "2013/10/30", "Prof": "10", "Id": "iduY92gPs3C"}, {"Color": "#fd8d3c", "Time": "03:04:53", "Lon": "13.19", "Place": "Mar  di  Sicilia", "Lat": "36.729", "Radius": 11.0, "Magn": "2.9", "Alpha": 0.4, "Date": "2013/10/30", "Prof": "30.4", "Id": "idL8H3sRLN7"}, {"Color": "#fecc5c", "Time": "05:46:15", "Lon": "15.489", "Place": "Stretto  di  Messina", "Lat": "37.872", "Radius": 11.0, "Magn": "2", "Alpha": 0.4, "Date": "2013/10/30", "Prof": "30.7", "Id": "id9cPiVJtKe"}, {"Color": "#fecc5c", "Time": "08:49:23", "Lon": "15.414", "Place": "Costa  calabra  occidentale", "Lat": "38.894", "Radius": 29.0, "Magn": "2.2", "Alpha": 0.4, "Date": "2013/10/30", "Prof": "216.6", "Id": "idYr9OiYjle"}, {"Color": "#fecc5c", "Time": "13:06:10", "Lon": "9.237", "Place": "Appennino  ligure", "Lat": "44.602", "Radius": 6.0, "Magn": "2", "Alpha": 0.4, "Date": "2013/10/30", "Prof": "8.2", "Id": "idi4sRjvB4D"}, {"Color": "#fecc5c", "Time": "13:22:26", "Lon": "15.713", "Place": "Costa  calabra  occidentale", "Lat": "38.921", "Radius": 26.0, "Magn": "2.3", "Alpha": 0.4, "Date": "2013/10/30", "Prof": "169.9", "Id": "idNSEzEusjq"}, {"Color": "#fd8d3c", "Time": "15:38:48", "Lon": "9.241", "Place": "Appennino  ligure", "Lat": "44.58", "Radius": 5.0, "Magn": "2.9", "Alpha": 0.4, "Date": "2013/10/30", "Prof": "6.1", "Id": "idJZaYHl0SC"}, {"Color": "#fd8d3c", "Time": "18:02:49", "Lon": "15.677", "Place": "Costa  calabra  occidentale", "Lat": "39.252", "Radius": 30.0, "Magn": "2.6", "Alpha": 0.4, "Date": "2013/10/30", "Prof": "224.3", "Id": "idlr770d5CL"}, {"Color": "#fd8d3c", "Time": "18:25:02", "Lon": "10.804", "Place": "Colline  Metallifere", "Lat": "43.172", "Radius": 5.0, "Magn": "2.6", "Alpha": 0.4, "Date": "2013/10/30", "Prof": "6.7", "Id": "ideeE32uygp"}, {"Color": "#fecc5c", "Time": "05:47:47", "Lon": "8.982", "Place": "Appennino  ligure", "Lat": "44.779", "Radius": 5.0, "Magn": "2.4", "Alpha": 0.42, "Date": "2013/10/31", "Prof": "7.2", "Id": "idlW4fMnflP"}, {"Color": "#bd0026", "Time": "12:02:08", "Lon": "121.441", "Place": "Taiwan", "Lat": "23.591", "Radius": 6.0, "Magn": "6.6", "Alpha": 0.42, "Date": "2013/10/31", "Prof": "9.3", "Id": "idZpPP55p6X"}, {"Color": "#fecc5c", "Time": "12:22:51", "Lon": "12.535", "Place": "Bacino  di  Gubbio", "Lat": "43.349", "Radius": 5.0, "Magn": "2.2", "Alpha": 0.42, "Date": "2013/10/31", "Prof": "7", "Id": "idCDbGIsENs"}, {"Color": "#fecc5c", "Time": "16:38:11", "Lon": "15.394", "Place": "Mar  Ionio", "Lat": "37.13", "Radius": 7.0, "Magn": "2.4", "Alpha": 0.42, "Date": "2013/10/31", "Prof": "10.7", "Id": "idNiPz3vS7n"}, {"Color": "#fd8d3c", "Time": "18:46:22", "Lon": "12.486", "Place": "Prealpi  venete", "Lat": "46.242", "Radius": 5.0, "Magn": "3.2", "Alpha": 0.42, "Date": "2013/10/31", "Prof": "5.8", "Id": "idUSL6z9f5c"}, {"Color": "#fecc5c", "Time": "21:10:24", "Lon": "13.726", "Place": "Adriatico  centro-sett.", "Lat": "43.552", "Radius": 6.0, "Magn": "2", "Alpha": 0.42, "Date": "2013/10/31", "Prof": "9.6", "Id": "idkAlj6QUHZ"}, {"Color": "#fd8d3c", "Time": "22:09:35", "Lon": "7.529", "Place": "Alpi  Marittime", "Lat": "43.988", "Radius": 6.0, "Magn": "3", "Alpha": 0.42, "Date": "2013/10/31", "Prof": "9.2", "Id": "idYueAryENo"}, {"Color": "#bd0026", "Time": "23:03:56", "Lon": "-71.7", "Place": "Near coast of central Chile", "Lat": "-30.31", "Radius": 6.0, "Magn": "6.5", "Alpha": 0.42, "Date": "2013/10/31", "Prof": "10", "Id": "id0BAzeaPVd"}, {"Color": "#fd8d3c", "Time": "00:08:41", "Lon": "13.856", "Place": "Madonie", "Lat": "37.747", "Radius": 2.0, "Magn": "3.1", "Alpha": 0.44, "Date": "2013/11/01", "Prof": "1", "Id": "idIZuXtX3F4"}, {"Color": "#fecc5c", "Time": "01:54:31", "Lon": "13.856", "Place": "Madonie", "Lat": "37.717", "Radius": 5.0, "Magn": "2.2", "Alpha": 0.44, "Date": "2013/11/01", "Prof": "5.6", "Id": "idAkKr5byfX"}, {"Color": "#fd8d3c", "Time": "04:40:17", "Lon": "15.724", "Place": "Costa  calabra  occidentale", "Lat": "38.807", "Radius": 29.0, "Magn": "3.1", "Alpha": 0.44, "Date": "2013/11/01", "Prof": "211.2", "Id": "idQeiCK0ASQ"}, {"Color": "#fecc5c", "Time": "06:52:30", "Lon": "13.673", "Place": "Monti  Sicani", "Lat": "37.579", "Radius": 6.0, "Magn": "2.2", "Alpha": 0.44, "Date": "2013/11/01", "Prof": "10.3", "Id": "idBYDOSwDcj"}, {"Color": "#fecc5c", "Time": "23:41:04", "Lon": "15.122", "Place": "Piana  del  Sele", "Lat": "40.592", "Radius": 4.0, "Magn": "2.3", "Alpha": 0.44, "Date": "2013/11/01", "Prof": "3.4", "Id": "idnVm4MqQKH"}, {"Color": "#fecc5c", "Time": "03:32:08", "Lon": "10.112", "Place": "Prealpi  lombarde", "Lat": "45.517", "Radius": 4.0, "Magn": "2.3", "Alpha": 0.47, "Date": "2013/11/02", "Prof": "4.6", "Id": "idBfphKhXu1"}, {"Color": "#fecc5c", "Time": "09:10:54", "Lon": "15.339", "Place": "Isole  Lipari", "Lat": "38.411", "Radius": 23.0, "Magn": "2.4", "Alpha": 0.47, "Date": "2013/11/02", "Prof": "131.6", "Id": "ido2hmhhIkD"}, {"Color": "#fecc5c", "Time": "09:28:08", "Lon": "13.418", "Place": "Gran  Sasso", "Lat": "42.509", "Radius": 7.0, "Magn": "2", "Alpha": 0.47, "Date": "2013/11/02", "Prof": "12.1", "Id": "idYL6UrP85b"}, {"Color": "#fecc5c", "Time": "13:14:50", "Lon": "10.853", "Place": "Appennino  pistoiese", "Lat": "44.135", "Radius": 9.0, "Magn": "2.2", "Alpha": 0.47, "Date": "2013/11/02", "Prof": "19.5", "Id": "idtrTDrMMmk"}, {"Color": "#bd0026", "Time": "18:53:47", "Lon": "-172.642", "Place": "Tonga Islands region", "Lat": "-19.157", "Radius": 6.0, "Magn": "6.4", "Alpha": 0.47, "Date": "2013/11/02", "Prof": "10", "Id": "idDJZiaZR4O"}, {"Color": "#fecc5c", "Time": "19:14:35", "Lon": "16.349", "Place": "Costa  calabra  meridionale", "Lat": "38.355", "Radius": 13.0, "Magn": "2.1", "Alpha": 0.47, "Date": "2013/11/02", "Prof": "45.5", "Id": "ideLsvncvlT"}, {"Color": "#fecc5c", "Time": "20:30:21", "Lon": "16.277", "Place": "La  Sila", "Lat": "39.046", "Radius": 6.0, "Magn": "2.1", "Alpha": 0.47, "Date": "2013/11/02", "Prof": "10", "Id": "idIs6TXIozy"}, {"Color": "#fecc5c", "Time": "06:49:12", "Lon": "15.434", "Place": "Golfi  di  Patti  e  di  Milazzo", "Lat": "38.363", "Radius": 21.0, "Magn": "2", "Alpha": 0.49, "Date": "2013/11/03", "Prof": "115.5", "Id": "idEx1KactVw"}, {"Color": "#fd8d3c", "Time": "14:33:41", "Lon": "15.166", "Place": "Piana  del  Sele", "Lat": "40.594", "Radius": 3.0, "Magn": "2.7", "Alpha": 0.49, "Date": "2013/11/03", "Prof": "2.2", "Id": "idD5YuXPS9A"}, {"Color": "#fecc5c", "Time": "14:57:38", "Lon": "15.127", "Place": "Piana  del  Sele", "Lat": "40.579", "Radius": 6.0, "Magn": "2", "Alpha": 0.49, "Date": "2013/11/03", "Prof": "8.1", "Id": "idSPcs2kRPp"}, {"Color": "#fecc5c", "Time": "21:42:44", "Lon": "8.29", "Place": "Switzerland", "Lat": "47.305", "Radius": 5.0, "Magn": "2.2", "Alpha": 0.49, "Date": "2013/11/03", "Prof": "7", "Id": "id9lWSkSRwJ"}, {"Color": "#fecc5c", "Time": "23:26:28", "Lon": "14.798", "Place": "Isole  Lipari", "Lat": "38.484", "Radius": 6.0, "Magn": "2.1", "Alpha": 0.49, "Date": "2013/11/03", "Prof": "8", "Id": "idkGb6ORqSC"}, {"Color": "#fecc5c", "Time": "06:30:02", "Lon": "13.281", "Place": "Velino-Sirente", "Lat": "42.207", "Radius": 6.0, "Magn": "2.1", "Alpha": 0.51, "Date": "2013/11/04", "Prof": "9.1", "Id": "idycvpl5oek"}, {"Color": "#fecc5c", "Time": "11:09:33", "Lon": "13.233", "Place": "Costa  marchig.  sett.  (Pesaro)", "Lat": "43.799", "Radius": 6.0, "Magn": "2", "Alpha": 0.51, "Date": "2013/11/04", "Prof": "9.8", "Id": "idxQdaV27x4"}, {"Color": "#fecc5c", "Time": "20:59:14", "Lon": "11.102", "Place": "Pianura  padana  emiliana", "Lat": "44.885", "Radius": 4.0, "Magn": "2.1", "Alpha": 0.51, "Date": "2013/11/04", "Prof": "5", "Id": "idUzVz0jSgN"}, {"Color": "#fd8d3c", "Time": "00:20:42", "Lon": "12.532", "Place": "Bacino  di  Gubbio", "Lat": "43.384", "Radius": 6.0, "Magn": "3.2", "Alpha": 0.54, "Date": "2013/11/05", "Prof": "8.2", "Id": "idfQcqhrrpk"}, {"Color": "#fd8d3c", "Time": "05:06:39", "Lon": "14.926", "Place": "Etna", "Lat": "37.656", "Radius": 9.0, "Magn": "3.1", "Alpha": 0.54, "Date": "2013/11/05", "Prof": "18.5", "Id": "idkspphStm7"}, {"Color": "#fd8d3c", "Time": "05:07:50", "Lon": "14.926", "Place": "Etna", "Lat": "37.656", "Radius": 9.0, "Magn": "2.6", "Alpha": 0.54, "Date": "2013/11/05", "Prof": "18.5", "Id": "idLCoTBXttL"}, {"Color": "#fd8d3c", "Time": "05:10:16", "Lon": "14.926", "Place": "Etna", "Lat": "37.656", "Radius": 9.0, "Magn": "3.4", "Alpha": 0.54, "Date": "2013/11/05", "Prof": "18.5", "Id": "idEPkVAk2gR"}, {"Color": "#fd8d3c", "Time": "05:16:10", "Lon": "14.926", "Place": "Etna", "Lat": "37.656", "Radius": 9.0, "Magn": "2.8", "Alpha": 0.54, "Date": "2013/11/05", "Prof": "18.5", "Id": "idR2hzsyG4D"}, {"Color": "#fecc5c", "Time": "05:20:02", "Lon": "14.913", "Place": "Etna", "Lat": "37.686", "Radius": 10.0, "Magn": "2.1", "Alpha": 0.54, "Date": "2013/11/05", "Prof": "25", "Id": "idqUjpcR7zq"}, {"Color": "#fd8d3c", "Time": "05:21:46", "Lon": "14.926", "Place": "Etna", "Lat": "37.656", "Radius": 9.0, "Magn": "2.7", "Alpha": 0.54, "Date": "2013/11/05", "Prof": "18.5", "Id": "idQ95o8ou1q"}, {"Color": "#fd8d3c", "Time": "05:29:58", "Lon": "14.926", "Place": "Etna", "Lat": "37.656", "Radius": 9.0, "Magn": "2.9", "Alpha": 0.54, "Date": "2013/11/05", "Prof": "18.5", "Id": "idPAA8z1CI9"}, {"Color": "#fd8d3c", "Time": "05:33:04", "Lon": "14.926", "Place": "Etna", "Lat": "37.656", "Radius": 9.0, "Magn": "2.5", "Alpha": 0.54, "Date": "2013/11/05", "Prof": "18.5", "Id": "idBcyfQd6bx"}, {"Color": "#fecc5c", "Time": "10:42:03", "Lon": "14.938", "Place": "Etna", "Lat": "37.709", "Radius": 7.0, "Magn": "2.4", "Alpha": 0.54, "Date": "2013/11/05", "Prof": "13.9", "Id": "idBlKVC4XRP"}, {"Color": "#fecc5c", "Time": "15:26:52", "Lon": "14.909", "Place": "Etna", "Lat": "37.686", "Radius": 10.0, "Magn": "2.3", "Alpha": 0.54, "Date": "2013/11/05", "Prof": "24.9", "Id": "idv2QheFSp2"}, {"Color": "#fecc5c", "Time": "16:42:56", "Lon": "14.92", "Place": "Etna", "Lat": "37.685", "Radius": 8.0, "Magn": "2", "Alpha": 0.54, "Date": "2013/11/05", "Prof": "17.4", "Id": "idasp2LjscE"}, {"Color": "#fd8d3c", "Time": "17:25:23", "Lon": "16.01", "Place": "Pollino", "Lat": "39.877", "Radius": 6.0, "Magn": "2.8", "Alpha": 0.54, "Date": "2013/11/05", "Prof": "8.3", "Id": "id1FsQbg9zu"}, {"Color": "#fd8d3c", "Time": "17:26:45", "Lon": "16.004", "Place": "Pollino", "Lat": "39.863", "Radius": 5.0, "Magn": "3.3", "Alpha": 0.54, "Date": "2013/11/05", "Prof": "7.2", "Id": "id53RYjaYxm"}, {"Color": "#fecc5c", "Time": "17:38:34", "Lon": "14.793", "Place": "Monti  Nebrodi", "Lat": "38.005", "Radius": 5.0, "Magn": "2.2", "Alpha": 0.54, "Date": "2013/11/05", "Prof": "7.4", "Id": "idP2uGF3mZp"}, {"Color": "#fecc5c", "Time": "23:20:54", "Lon": "14.794", "Place": "Monti  Nebrodi", "Lat": "38.004", "Radius": 5.0, "Magn": "2.3", "Alpha": 0.54, "Date": "2013/11/05", "Prof": "7.4", "Id": "idkTpefYzDY"}, {"Color": "#fecc5c", "Time": "00:39:18", "Lon": "12.53", "Place": "Bacino  di  Gubbio", "Lat": "43.379", "Radius": 6.0, "Magn": "2.4", "Alpha": 0.56, "Date": "2013/11/06", "Prof": "8.5", "Id": "idp9p8EtBSs"}, {"Color": "#fecc5c", "Time": "00:59:28", "Lon": "14.888", "Place": "Irpinia", "Lat": "40.797", "Radius": 6.0, "Magn": "2", "Alpha": 0.56, "Date": "2013/11/06", "Prof": "9.1", "Id": "id4flUOfotj"}, {"Color": "#fecc5c", "Time": "04:31:00", "Lon": "14.912", "Place": "Etna", "Lat": "37.703", "Radius": 8.0, "Magn": "2.4", "Alpha": 0.56, "Date": "2013/11/06", "Prof": "17", "Id": "idhMVkfa6NR"}, {"Color": "#fecc5c", "Time": "04:44:00", "Lon": "14.913", "Place": "Etna", "Lat": "37.718", "Radius": 8.0, "Magn": "2.2", "Alpha": 0.56, "Date": "2013/11/06", "Prof": "16", "Id": "id2dycb1LpJ"}, {"Color": "#fecc5c", "Time": "04:45:00", "Lon": "14.929", "Place": "Etna", "Lat": "37.728", "Radius": 7.0, "Magn": "2.3", "Alpha": 0.56, "Date": "2013/11/06", "Prof": "12", "Id": "idyDtJ5awJp"}, {"Color": "#fd8d3c", "Time": "00:55:48", "Lon": "15.602", "Place": "Costa  calabra  occidentale", "Lat": "38.754", "Radius": 25.0, "Magn": "2.6", "Alpha": 0.58, "Date": "2013/11/07", "Prof": "157.8", "Id": "idWWuUbqxwZ"}, {"Color": "#fd8d3c", "Time": "04:17:23", "Lon": "11.267", "Place": "Pianura  padana  emiliana", "Lat": "44.874", "Radius": 4.0, "Magn": "2.7", "Alpha": 0.61, "Date": "2013/11/08", "Prof": "3.1", "Id": "id8f0Evjbc5"}, {"Color": "#fecc5c", "Time": "04:36:43", "Lon": "11.297", "Place": "Pianura  padana  emiliana", "Lat": "44.844", "Radius": 4.0, "Magn": "2", "Alpha": 0.61, "Date": "2013/11/08", "Prof": "5", "Id": "idjXXCv5KNi"}, {"Color": "#fecc5c", "Time": "19:11:37", "Lon": "14.602", "Place": "Isole  Lipari", "Lat": "38.519", "Radius": 6.0, "Magn": "2", "Alpha": 0.61, "Date": "2013/11/08", "Prof": "10", "Id": "idKEbB2G4Uv"}, {"Color": "#fd8d3c", "Time": "10:17:58", "Lon": "7.539", "Place": "Alpi  Marittime", "Lat": "43.984", "Radius": 6.0, "Magn": "2.7", "Alpha": 0.63, "Date": "2013/11/09", "Prof": "10.2", "Id": "idgI65gWfKb"}, {"Color": "#fecc5c", "Time": "23:56:22", "Lon": "16.265", "Place": "Le  Murge", "Lat": "40.679", "Radius": 10.0, "Magn": "2.1", "Alpha": 0.63, "Date": "2013/11/09", "Prof": "26.7", "Id": "id37oDbP6kU"}, {"Color": "#fecc5c", "Time": "04:54:10", "Lon": "7.261", "Place": "Alpi  Cozie", "Lat": "44.442", "Radius": 7.0, "Magn": "2.3", "Alpha": 0.65, "Date": "2013/11/10", "Prof": "12.8", "Id": "id7IN2N7lLR"}, {"Color": "#fecc5c", "Time": "05:57:43", "Lon": "14.46", "Place": "Monti  Iblei", "Lat": "37.117", "Radius": 11.0, "Magn": "2", "Alpha": 0.65, "Date": "2013/11/10", "Prof": "28.1", "Id": "idnAcjK75rJ"}, {"Color": "#fecc5c", "Time": "04:39:05", "Lon": "16.134", "Place": "Mar  Ionio", "Lat": "37.224", "Radius": 6.0, "Magn": "2.4", "Alpha": 0.68, "Date": "2013/11/11", "Prof": "10", "Id": "idvo0Zo4gtS"}, {"Color": "#fd8d3c", "Time": "11:38:41", "Lon": "15.006", "Place": "Tirreno  meridionale  B", "Lat": "39.044", "Radius": 33.0, "Magn": "2.6", "Alpha": 0.68, "Date": "2013/11/11", "Prof": "268.5", "Id": "idnbATE0zMx"}, {"Color": "#fd8d3c", "Time": "12:31:17", "Lon": "14.881", "Place": "Etna", "Lat": "37.789", "Radius": 6.0, "Magn": "2.6", "Alpha": 0.68, "Date": "2013/11/11", "Prof": "7.6", "Id": "idpPpiqWNuX"}, {"Color": "#fecc5c", "Time": "15:21:35", "Lon": "15.557", "Place": "Mar  Ionio", "Lat": "37.143", "Radius": 6.0, "Magn": "2", "Alpha": 0.68, "Date": "2013/11/11", "Prof": "10", "Id": "idf8NQFCRZu"}, {"Color": "#fecc5c", "Time": "20:06:45", "Lon": "7.266", "Place": "Alpi  Marittime", "Lat": "44.329", "Radius": 6.0, "Magn": "2.2", "Alpha": 0.68, "Date": "2013/11/11", "Prof": "7.6", "Id": "idlNZwokDeT"}, {"Color": "#fecc5c", "Time": "22:53:35", "Lon": "13.515", "Place": "Velino-Sirente", "Lat": "42.242", "Radius": 6.0, "Magn": "2.3", "Alpha": 0.68, "Date": "2013/11/11", "Prof": "10.1", "Id": "idrhCiwMOtv"}, {"Color": "#fecc5c", "Time": "00:33:26", "Lon": "12.989", "Place": "Appennino  maceratese", "Lat": "43.141", "Radius": 7.0, "Magn": "2.1", "Alpha": 0.7, "Date": "2013/11/12", "Prof": "12.6", "Id": "idrBV6ZVWkk"}, {"Color": "#fecc5c", "Time": "01:40:33", "Lon": "12.533", "Place": "Bacino  di  Gubbio", "Lat": "43.385", "Radius": 6.0, "Magn": "2.1", "Alpha": 0.7, "Date": "2013/11/12", "Prof": "8.1", "Id": "idK4vi7ADme"}, {"Color": "#fecc5c", "Time": "06:23:58", "Lon": "16.08", "Place": "Pollino", "Lat": "39.89", "Radius": 6.0, "Magn": "2", "Alpha": 0.7, "Date": "2013/11/12", "Prof": "8.3", "Id": "idVjyHkgYhQ"}, {"Color": "#bd0026", "Time": "07:04:51", "Lon": "162.286", "Place": "Near east coast of Kamchatka Peninsula, Russia", "Lat": "54.681", "Radius": 14.0, "Magn": "6.6", "Alpha": 0.7, "Date": "2013/11/12", "Prof": "47.2", "Id": "idupoW3l9W9"}]