[{"Color": "#fecc5c", "Time": "09:22:58", "Lon": "16.011", "Place": "Monte  Alpi-Sirino", "Lat": "39.963", "Radius": 6.0, "Magn": "2.1", "Alpha": 0.02, "Date": "2013/10/12", "Prof": "9.1", "Id": "idhFrXCsrM6"}, {"Color": "#bd0026", "Time": "13:11:53", "Lon": "23.28", "Place": "Crete, Greece", "Lat": "35.52", "Radius": 14.0, "Magn": "6.4", "Alpha": 0.02, "Date": "2013/10/12", "Prof": "52", "Id": "idJBoIbxTN2"}, {"Color": "#fecc5c", "Time": "15:03:01", "Lon": "12.53", "Place": "Val  Nerina", "Lat": "42.628", "Radius": 6.0, "Magn": "2.2", "Alpha": 0.02, "Date": "2013/10/12", "Prof": "8.3", "Id": "idzdVPAqIeg"}, {"Color": "#fecc5c", "Time": "13:18:14", "Lon": "12.551", "Place": "Bacino  di  Gubbio", "Lat": "43.37", "Radius": 6.0, "Magn": "2", "Alpha": 0.05, "Date": "2013/10/13", "Prof": "8.6", "Id": "idKx9bsQGCN"}, {"Color": "#fecc5c", "Time": "15:45:04", "Lon": "12.553", "Place": "Bacino  di  Gubbio", "Lat": "43.365", "Radius": 5.0, "Magn": "2.4", "Alpha": 0.05, "Date": "2013/10/13", "Prof": "7.3", "Id": "idZtmbdGaPv"}, {"Color": "#fecc5c", "Time": "18:57:08", "Lon": "15.207", "Place": "Golfo  di  Catania", "Lat": "37.553", "Radius": 9.0, "Magn": "2.4", "Alpha": 0.05, "Date": "2013/10/13", "Prof": "22.2", "Id": "idbZSkpdsPY"}, {"Color": "#fecc5c", "Time": "23:57:48", "Lon": "15.524", "Place": "Isole  Lipari", "Lat": "38.495", "Radius": 23.0, "Magn": "2.2", "Alpha": 0.05, "Date": "2013/10/13", "Prof": "134.1", "Id": "idGeMbIS7C4"}, {"Color": "#fecc5c", "Time": "04:03:19", "Lon": "13.688", "Place": "Marsica", "Lat": "41.879", "Radius": 6.0, "Magn": "2", "Alpha": 0.07, "Date": "2013/10/14", "Prof": "10.1", "Id": "idSFW4yRzmJ"}, {"Color": "#fd8d3c", "Time": "13:00:55", "Lon": "12.178", "Place": "Tirreno  meridionale  B", "Lat": "38.221", "Radius": 10.0, "Magn": "3.4", "Alpha": 0.07, "Date": "2013/10/14", "Prof": "23.8", "Id": "idm7NEdsVKJ"}, {"Color": "#fecc5c", "Time": "15:16:17", "Lon": "15.239", "Place": "Isole  Lipari", "Lat": "38.842", "Radius": 6.0, "Magn": "2", "Alpha": 0.07, "Date": "2013/10/14", "Prof": "9.4", "Id": "idBenAFFo3O"}, {"Color": "#fecc5c", "Time": "16:26:33", "Lon": "8.987", "Place": "Appennino  ligure", "Lat": "44.8", "Radius": 6.0, "Magn": "2.4", "Alpha": 0.07, "Date": "2013/10/14", "Prof": "9.9", "Id": "idOKH7I5Apt"}, {"Color": "#fd8d3c", "Time": "19:48:49", "Lon": "12.071", "Place": "Tirreno  meridionale  B", "Lat": "38.206", "Radius": 9.0, "Magn": "3.2", "Alpha": 0.07, "Date": "2013/10/14", "Prof": "21.4", "Id": "idbepMD8xQR"}, {"Color": "#fecc5c", "Time": "22:07:57", "Lon": "12.585", "Place": "Bacino  di  Gubbio", "Lat": "43.328", "Radius": 6.0, "Magn": "2.1", "Alpha": 0.07, "Date": "2013/10/14", "Prof": "9", "Id": "idcEKeNRDzF"}, {"Color": "#bd0026", "Time": "00:12:33", "Lon": "124.08", "Place": "Mindanao, Philippine Islands", "Lat": "9.9", "Radius": 14.0, "Magn": "7.2", "Alpha": 0.09, "Date": "2013/10/15", "Prof": "48", "Id": "id7N2G0qg70"}, {"Color": "#fd8d3c", "Time": "02:47:13", "Lon": "7.256", "Place": "Alpi  Cozie", "Lat": "44.408", "Radius": 8.0, "Magn": "3.4", "Alpha": 0.09, "Date": "2013/10/15", "Prof": "16", "Id": "idLzRkzrxDE"}, {"Color": "#fecc5c", "Time": "10:48:03", "Lon": "13.773", "Place": "Adriatico  centro-sett.", "Lat": "43.63", "Radius": 6.0, "Magn": "2", "Alpha": 0.09, "Date": "2013/10/15", "Prof": "10.5", "Id": "idyI4DEPOTT"}, {"Color": "#fecc5c", "Time": "18:03:17", "Lon": "15.517", "Place": "Isole  Lipari", "Lat": "38.483", "Radius": 23.0, "Magn": "2.4", "Alpha": 0.09, "Date": "2013/10/15", "Prof": "132.6", "Id": "idfSrQjQKW4"}, {"Color": "#fecc5c", "Time": "18:57:54", "Lon": "10.2", "Place": "Lunigiana", "Lat": "44.209", "Radius": 7.0, "Magn": "2.2", "Alpha": 0.09, "Date": "2013/10/15", "Prof": "10.6", "Id": "idXUxmHCUr7"}, {"Color": "#bd0026", "Time": "19:33:12", "Lon": "26.59", "Place": "Romania", "Lat": "45.63", "Radius": 24.0, "Magn": "4.8", "Alpha": 0.09, "Date": "2013/10/15", "Prof": "150", "Id": "idLSlX85uqk"}, {"Color": "#bd0026", "Time": "10:31:00", "Lon": "154.9", "Place": "Bougainville - Solomon Islands region", "Lat": "-6.6", "Radius": 11.0, "Magn": "7.1", "Alpha": 0.12, "Date": "2013/10/16", "Prof": "33", "Id": "idWmO6P613t"}, {"Color": "#fecc5c", "Time": "13:34:25", "Lon": "13.942", "Place": "Monti  della  Meta-Le  Mainarde", "Lat": "41.682", "Radius": 7.0, "Magn": "2.3", "Alpha": 0.12, "Date": "2013/10/16", "Prof": "13.8", "Id": "idPTtOtPsGS"}, {"Color": "#fecc5c", "Time": "01:28:33", "Lon": "15.291", "Place": "Golfo  di  Catania", "Lat": "37.688", "Radius": 10.0, "Magn": "2", "Alpha": 0.14, "Date": "2013/10/17", "Prof": "23.5", "Id": "idQDXPAB5tC"}, {"Color": "#fecc5c", "Time": "04:53:19", "Lon": "16.461", "Place": "La  Sila", "Lat": "39.182", "Radius": 6.0, "Magn": "2", "Alpha": 0.14, "Date": "2013/10/17", "Prof": "9", "Id": "idhCOgvogm7"}, {"Color": "#fd8d3c", "Time": "10:27:08", "Lon": "6.264", "Place": "Western Mediterranean Sea", "Lat": "42.924", "Radius": 6.0, "Magn": "2.6", "Alpha": 0.14, "Date": "2013/10/17", "Prof": "10", "Id": "idw0u05HBJa"}, {"Color": "#fecc5c", "Time": "11:32:39", "Lon": "11.238", "Place": "Pianura  padana  emiliana", "Lat": "44.861", "Radius": 6.0, "Magn": "2.2", "Alpha": 0.14, "Date": "2013/10/17", "Prof": "8.5", "Id": "idStcCK8bWJ"}, {"Color": "#fd8d3c", "Time": "20:01:59", "Lon": "13.799", "Place": "Adriatico  centro-sett.", "Lat": "43.528", "Radius": 6.0, "Magn": "2.7", "Alpha": 0.14, "Date": "2013/10/17", "Prof": "10.4", "Id": "id8vSuSIw0Y"}, {"Color": "#fecc5c", "Time": "04:55:32", "Lon": "13.804", "Place": "Adriatico  centro-sett.", "Lat": "43.541", "Radius": 6.0, "Magn": "2.2", "Alpha": 0.16, "Date": "2013/10/18", "Prof": "10.3", "Id": "idlANI0DyH4"}, {"Color": "#fd8d3c", "Time": "08:03:44", "Lon": "14.914", "Place": "Costa  siciliana  settentrionale", "Lat": "38.111", "Radius": 8.0, "Magn": "2.7", "Alpha": 0.16, "Date": "2013/10/18", "Prof": "14.6", "Id": "idgkoQWfA98"}, {"Color": "#fd8d3c", "Time": "11:05:21", "Lon": "14.966", "Place": "Monti  Iblei", "Lat": "36.785", "Radius": 3.0, "Magn": "3", "Alpha": 0.16, "Date": "2013/10/18", "Prof": "1.8", "Id": "id6qcO9BtWX"}, {"Color": "#fecc5c", "Time": "11:14:24", "Lon": "14.867", "Place": "Isole  Lipari", "Lat": "38.361", "Radius": 6.0, "Magn": "2.2", "Alpha": 0.16, "Date": "2013/10/18", "Prof": "7.6", "Id": "idzRp7wqDrB"}, {"Color": "#fd8d3c", "Time": "11:44:00", "Lon": "10.289", "Place": "Costa  toscana  settentrionale", "Lat": "43.685", "Radius": 6.0, "Magn": "2.6", "Alpha": 0.16, "Date": "2013/10/18", "Prof": "10.3", "Id": "id83EYGttVj"}, {"Color": "#fecc5c", "Time": "19:44:21", "Lon": "16.151", "Place": "Le  Serre", "Lat": "38.382", "Radius": 7.0, "Magn": "2", "Alpha": 0.16, "Date": "2013/10/18", "Prof": "10.9", "Id": "idtwqFCULgj"}, {"Color": "#fd8d3c", "Time": "20:50:52", "Lon": "15.205", "Place": "Irpinia", "Lat": "40.798", "Radius": 8.0, "Magn": "3", "Alpha": 0.16, "Date": "2013/10/18", "Prof": "14.3", "Id": "idsDkdLvpqq"}, {"Color": "#fd8d3c", "Time": "02:15:28", "Lon": "12.526", "Place": "Bacino  di  Gubbio", "Lat": "43.377", "Radius": 6.0, "Magn": "3.2", "Alpha": 0.19, "Date": "2013/10/19", "Prof": "8.2", "Id": "id2RbnJJCoC"}, {"Color": "#fecc5c", "Time": "02:19:34", "Lon": "12.532", "Place": "Bacino  di  Gubbio", "Lat": "43.38", "Radius": 6.0, "Magn": "2.1", "Alpha": 0.19, "Date": "2013/10/19", "Prof": "8.1", "Id": "idjvAs9Yq35"}, {"Color": "#fecc5c", "Time": "05:33:35", "Lon": "12.529", "Place": "Bacino  di  Gubbio", "Lat": "43.379", "Radius": 6.0, "Magn": "2", "Alpha": 0.19, "Date": "2013/10/19", "Prof": "9.2", "Id": "idmvoDKlXfK"}, {"Color": "#fd8d3c", "Time": "11:04:26", "Lon": "15.152", "Place": "Piana  del  Sele", "Lat": "40.602", "Radius": 6.0, "Magn": "2.6", "Alpha": 0.19, "Date": "2013/10/19", "Prof": "10", "Id": "iduuSyfHSzz"}, {"Color": "#fd8d3c", "Time": "11:08:02", "Lon": "15.169", "Place": "Piana  del  Sele", "Lat": "40.59", "Radius": 6.0, "Magn": "2.7", "Alpha": 0.19, "Date": "2013/10/19", "Prof": "9.5", "Id": "idOvPuycc2w"}, {"Color": "#fd8d3c", "Time": "12:29:35", "Lon": "10.274", "Place": "Costa  toscana  settentrionale", "Lat": "43.675", "Radius": 6.0, "Magn": "3.4", "Alpha": 0.19, "Date": "2013/10/19", "Prof": "9.9", "Id": "idSLmhqM0Rn"}, {"Color": "#fecc5c", "Time": "12:32:28", "Lon": "10.288", "Place": "Costa  toscana  settentrionale", "Lat": "43.682", "Radius": 6.0, "Magn": "2", "Alpha": 0.19, "Date": "2013/10/19", "Prof": "10.4", "Id": "id7kEDzeTRe"}, {"Color": "#fd8d3c", "Time": "16:21:57", "Lon": "8.999", "Place": "Appennino  ligure", "Lat": "44.77", "Radius": 9.0, "Magn": "3.4", "Alpha": 0.19, "Date": "2013/10/19", "Prof": "22.3", "Id": "iddn3IPSnJC"}, {"Color": "#bd0026", "Time": "17:54:56", "Lon": "-110.178", "Place": "Gulf of California, Mexico", "Lat": "26.27", "Radius": 2.0, "Magn": "6.5", "Alpha": 0.19, "Date": "2013/10/19", "Prof": "1", "Id": "idPFWBcqPAh"}, {"Color": "#fecc5c", "Time": "19:15:18", "Lon": "15.903", "Place": "Costa  calabra  occidentale", "Lat": "39.077", "Radius": 16.0, "Magn": "2", "Alpha": 0.19, "Date": "2013/10/19", "Prof": "60.8", "Id": "idLLVLVOBa3"}, {"Color": "#fecc5c", "Time": "01:20:58", "Lon": "13.332", "Place": "Monti  Sibillini", "Lat": "42.857", "Radius": 10.0, "Magn": "2", "Alpha": 0.21, "Date": "2013/10/20", "Prof": "22.9", "Id": "idC9co1NI3K"}, {"Color": "#fecc5c", "Time": "07:51:08", "Lon": "9.022", "Place": "Appennino  ligure", "Lat": "44.732", "Radius": 9.0, "Magn": "2.3", "Alpha": 0.21, "Date": "2013/10/20", "Prof": "20.9", "Id": "idQBDOne4SN"}, {"Color": "#fecc5c", "Time": "07:53:21", "Lon": "9.016", "Place": "Appennino  ligure", "Lat": "44.717", "Radius": 6.0, "Magn": "2.4", "Alpha": 0.21, "Date": "2013/10/20", "Prof": "9.7", "Id": "idSK7HYEv8h"}, {"Color": "#fecc5c", "Time": "03:06:42", "Lon": "12.917", "Place": "Valle  del  Belice", "Lat": "37.632", "Radius": 11.0, "Magn": "2", "Alpha": 0.23, "Date": "2013/10/21", "Prof": "30.8", "Id": "idoYoAvlY0E"}, {"Color": "#fecc5c", "Time": "09:49:03", "Lon": "12.547", "Place": "Bacino  di  Gubbio", "Lat": "43.379", "Radius": 5.0, "Magn": "2", "Alpha": 0.23, "Date": "2013/10/21", "Prof": "5.2", "Id": "idBCJEdVMjf"}, {"Color": "#fecc5c", "Time": "12:42:48", "Lon": "13.723", "Place": "Alpi  Giulie", "Lat": "46.317", "Radius": 4.0, "Magn": "2.4", "Alpha": 0.23, "Date": "2013/10/21", "Prof": "3.1", "Id": "id2mcMh8nP4"}, {"Color": "#fecc5c", "Time": "15:00:36", "Lon": "14.813", "Place": "Isole  Lipari", "Lat": "38.458", "Radius": 4.0, "Magn": "2", "Alpha": 0.23, "Date": "2013/10/21", "Prof": "4.4", "Id": "idh5R5ueLJO"}, {"Color": "#fd8d3c", "Time": "19:47:39", "Lon": "12.743", "Place": "Valle  del  Topino", "Lat": "42.777", "Radius": 5.0, "Magn": "2.6", "Alpha": 0.23, "Date": "2013/10/21", "Prof": "6.9", "Id": "ideDzobdcSP"}, {"Color": "#fecc5c", "Time": "01:13:33", "Lon": "15.325", "Place": "Isole  Lipari", "Lat": "38.565", "Radius": 29.0, "Magn": "2.2", "Alpha": 0.26, "Date": "2013/10/22", "Prof": "204.8", "Id": "id8OWkF3NSF"}, {"Color": "#fd8d3c", "Time": "03:34:51", "Lon": "10.152", "Place": "Lunigiana", "Lat": "44.199", "Radius": 6.0, "Magn": "2.5", "Alpha": 0.26, "Date": "2013/10/22", "Prof": "9.6", "Id": "idc8MzvyUPJ"}, {"Color": "#fecc5c", "Time": "15:29:59", "Lon": "10.201", "Place": "Alpi  Apuane", "Lat": "44.186", "Radius": 6.0, "Magn": "2.4", "Alpha": 0.26, "Date": "2013/10/22", "Prof": "9.3", "Id": "idpm1KC7evf"}, {"Color": "#fd8d3c", "Time": "00:31:22", "Lon": "13.411", "Place": "Monti  della  Laga", "Lat": "42.551", "Radius": 9.0, "Magn": "3.2", "Alpha": 0.28, "Date": "2013/10/23", "Prof": "18.2", "Id": "idIN43D4CDf"}, {"Color": "#fecc5c", "Time": "03:01:09", "Lon": "15.276", "Place": "Irpinia", "Lat": "40.766", "Radius": 6.0, "Magn": "2", "Alpha": 0.28, "Date": "2013/10/23", "Prof": "8.8", "Id": "idTr8lVqKqH"}, {"Color": "#fd8d3c", "Time": "03:45:41", "Lon": "12.754", "Place": "Valle  del  Topino", "Lat": "42.778", "Radius": 6.0, "Magn": "2.6", "Alpha": 0.28, "Date": "2013/10/23", "Prof": "8", "Id": "id0nGRGDfbM"}, {"Color": "#fecc5c", "Time": "10:01:49", "Lon": "15.205", "Place": "Isole  Lipari", "Lat": "38.442", "Radius": 24.0, "Magn": "2.3", "Alpha": 0.28, "Date": "2013/10/23", "Prof": "147.4", "Id": "idS6frXcZlT"}, {"Color": "#fd8d3c", "Time": "11:06:21", "Lon": "12.653", "Place": "Monti  Martani", "Lat": "42.796", "Radius": 6.0, "Magn": "2.9", "Alpha": 0.28, "Date": "2013/10/23", "Prof": "8", "Id": "id37cdYQuTT"}, {"Color": "#fecc5c", "Time": "02:41:26", "Lon": "14.845", "Place": "Golfi  di  Patti  e  di  Milazzo", "Lat": "38.237", "Radius": 22.0, "Magn": "2.1", "Alpha": 0.3, "Date": "2013/10/24", "Prof": "124.4", "Id": "idt6IwEWK5u"}, {"Color": "#fecc5c", "Time": "04:32:00", "Lon": "12.881", "Place": "Reatino", "Lat": "42.41", "Radius": 6.0, "Magn": "2", "Alpha": 0.3, "Date": "2013/10/24", "Prof": "8", "Id": "idpUjqCzcal"}, {"Color": "#fecc5c", "Time": "07:32:29", "Lon": "11.95", "Place": "Casentino", "Lat": "43.795", "Radius": 5.0, "Magn": "2.4", "Alpha": 0.3, "Date": "2013/10/24", "Prof": "6.5", "Id": "idn4XOXVJcR"}, {"Color": "#fd8d3c", "Time": "09:17:00", "Lon": "10.503", "Place": "Frignano", "Lat": "44.269", "Radius": 8.0, "Magn": "3.1", "Alpha": 0.33, "Date": "2013/10/25", "Prof": "17.8", "Id": "idJLGp7cU7z"}, {"Color": "#fecc5c", "Time": "10:38:22", "Lon": "15.002", "Place": "Etna", "Lat": "37.864", "Radius": 11.0, "Magn": "2.1", "Alpha": 0.33, "Date": "2013/10/25", "Prof": "29.3", "Id": "idDzsj3NnQ0"}, {"Color": "#fecc5c", "Time": "12:04:31", "Lon": "15.004", "Place": "Etna", "Lat": "37.856", "Radius": 12.0, "Magn": "2.1", "Alpha": 0.33, "Date": "2013/10/25", "Prof": "33.8", "Id": "id3wZhtAzLw"}, {"Color": "#fd8d3c", "Time": "12:05:00", "Lon": "14.99", "Place": "Etna", "Lat": "37.84", "Radius": 9.0, "Magn": "2.6", "Alpha": 0.33, "Date": "2013/10/25", "Prof": "22.5", "Id": "idMJwc9HfUn"}, {"Color": "#fecc5c", "Time": "12:06:12", "Lon": "14.991", "Place": "Etna", "Lat": "37.856", "Radius": 11.0, "Magn": "2", "Alpha": 0.33, "Date": "2013/10/25", "Prof": "29.7", "Id": "id6OXyMzIe8"}, {"Color": "#fecc5c", "Time": "12:09:33", "Lon": "14.986", "Place": "Etna", "Lat": "37.818", "Radius": 6.0, "Magn": "2", "Alpha": 0.33, "Date": "2013/10/25", "Prof": "9.2", "Id": "iduWgRW4TJw"}, {"Color": "#fecc5c", "Time": "12:10:30", "Lon": "15.016", "Place": "Etna", "Lat": "37.851", "Radius": 11.0, "Magn": "2.2", "Alpha": 0.33, "Date": "2013/10/25", "Prof": "29.5", "Id": "ideh5ZLwor2"}, {"Color": "#fecc5c", "Time": "12:11:30", "Lon": "14.998", "Place": "Etna", "Lat": "37.837", "Radius": 10.0, "Magn": "2.1", "Alpha": 0.33, "Date": "2013/10/25", "Prof": "24.9", "Id": "idL7S7sj0aG"}, {"Color": "#fecc5c", "Time": "12:24:38", "Lon": "11.141", "Place": "Pianura  padana  lombarda", "Lat": "44.957", "Radius": 4.0, "Magn": "2.2", "Alpha": 0.33, "Date": "2013/10/25", "Prof": "5", "Id": "id7PvbAjMqX"}, {"Color": "#fecc5c", "Time": "12:53:13", "Lon": "14.989", "Place": "Etna", "Lat": "37.844", "Radius": 10.0, "Magn": "2.2", "Alpha": 0.33, "Date": "2013/10/25", "Prof": "25.7", "Id": "idtVrGRH3NG"}, {"Color": "#fecc5c", "Time": "12:59:05", "Lon": "14.997", "Place": "Etna", "Lat": "37.844", "Radius": 11.0, "Magn": "2", "Alpha": 0.33, "Date": "2013/10/25", "Prof": "29.9", "Id": "idJUyn1ZEM9"}, {"Color": "#fecc5c", "Time": "13:46:16", "Lon": "15.001", "Place": "Etna", "Lat": "37.875", "Radius": 10.0, "Magn": "2.1", "Alpha": 0.33, "Date": "2013/10/25", "Prof": "26.4", "Id": "idv9DPBzkAe"}, {"Color": "#fecc5c", "Time": "14:32:21", "Lon": "15.009", "Place": "Etna", "Lat": "37.818", "Radius": 13.0, "Magn": "2.1", "Alpha": 0.33, "Date": "2013/10/25", "Prof": "39.6", "Id": "idGqJ5e8oUG"}, {"Color": "#fecc5c", "Time": "15:41:01", "Lon": "14.991", "Place": "Etna", "Lat": "37.837", "Radius": 10.0, "Magn": "2.2", "Alpha": 0.33, "Date": "2013/10/25", "Prof": "26.6", "Id": "idjbGpXj5Xu"}, {"Color": "#bd0026", "Time": "17:10:16", "Lon": "144.663", "Place": "Off east coast of Honshu, Japan", "Lat": "37.194", "Radius": 6.0, "Magn": "7.3", "Alpha": 0.33, "Date": "2013/10/25", "Prof": "10", "Id": "idncDTaNsTf"}, {"Color": "#fecc5c", "Time": "17:54:29", "Lon": "13.896", "Place": "Bacino  di  Sulmona", "Lat": "42.177", "Radius": 6.0, "Magn": "2", "Alpha": 0.33, "Date": "2013/10/25", "Prof": "10.2", "Id": "idPOALVtltr"}, {"Color": "#fd8d3c", "Time": "01:20:25", "Lon": "15.002", "Place": "Etna", "Lat": "37.855", "Radius": 10.0, "Magn": "2.8", "Alpha": 0.35, "Date": "2013/10/26", "Prof": "24", "Id": "id6WKBQQC7M"}, {"Color": "#fecc5c", "Time": "01:23:20", "Lon": "14.999", "Place": "Etna", "Lat": "37.845", "Radius": 10.0, "Magn": "2.2", "Alpha": 0.35, "Date": "2013/10/26", "Prof": "27.3", "Id": "idOT5CjvR3k"}, {"Color": "#fecc5c", "Time": "03:11:56", "Lon": "15.005", "Place": "Etna", "Lat": "37.845", "Radius": 11.0, "Magn": "2.3", "Alpha": 0.35, "Date": "2013/10/26", "Prof": "29.2", "Id": "id5tjNoFFIf"}, {"Color": "#ffffb2", "Time": "07:59:27", "Lon": "16.225", "Place": "Pollino", "Lat": "39.834", "Radius": 6.0, "Magn": "1.5", "Alpha": 0.35, "Date": "2013/10/26", "Prof": "8.2", "Id": "id3gIqlEd4E"}, {"Color": "#fecc5c", "Time": "09:55:01", "Lon": "13.617", "Place": "Tirreno  meridionale  A", "Lat": "38.342", "Radius": 6.0, "Magn": "2.1", "Alpha": 0.35, "Date": "2013/10/26", "Prof": "10.5", "Id": "idtIQYjdv0Y"}, {"Color": "#fecc5c", "Time": "20:46:42", "Lon": "14.97", "Place": "Etna", "Lat": "37.85", "Radius": 10.0, "Magn": "2.2", "Alpha": 0.35, "Date": "2013/10/26", "Prof": "25", "Id": "idqcKgAlZAy"}, {"Color": "#fecc5c", "Time": "21:39:49", "Lon": "10.835", "Place": "Appennino  modenese", "Lat": "44.441", "Radius": 14.0, "Magn": "2", "Alpha": 0.35, "Date": "2013/10/26", "Prof": "46.4", "Id": "idrl5hNzous"}, {"Color": "#fd8d3c", "Time": "07:26:30", "Lon": "8.976", "Place": "Appennino  ligure", "Lat": "44.771", "Radius": 6.0, "Magn": "3.1", "Alpha": 0.37, "Date": "2013/10/27", "Prof": "10.4", "Id": "idhexUY3gGW"}, {"Color": "#fecc5c", "Time": "18:30:19", "Lon": "15.798", "Place": "Appennino  Lucano", "Lat": "40.544", "Radius": 10.0, "Magn": "2", "Alpha": 0.37, "Date": "2013/10/27", "Prof": "23.1", "Id": "idAc5qhDTvG"}, {"Color": "#fd8d3c", "Time": "23:42:07", "Lon": "14.031", "Place": "Marsica", "Lat": "41.751", "Radius": 6.0, "Magn": "2.6", "Alpha": 0.37, "Date": "2013/10/27", "Prof": "9.7", "Id": "idHHHGGwnxA"}, {"Color": "#fecc5c", "Time": "04:13:11", "Lon": "14.492", "Place": "Monti  Nebrodi", "Lat": "37.856", "Radius": 6.0, "Magn": "2.4", "Alpha": 0.4, "Date": "2013/10/28", "Prof": "10.5", "Id": "idcOyjowcMj"}, {"Color": "#fecc5c", "Time": "04:33:27", "Lon": "9.278", "Place": "Valle  del  Trebbia", "Lat": "44.584", "Radius": 6.0, "Magn": "2.2", "Alpha": 0.4, "Date": "2013/10/28", "Prof": "8", "Id": "idbtEn27eX3"}, {"Color": "#fd8d3c", "Time": "06:23:54", "Lon": "15.394", "Place": "Isole  Lipari", "Lat": "38.682", "Radius": 29.0, "Magn": "2.9", "Alpha": 0.4, "Date": "2013/10/28", "Prof": "203.2", "Id": "id2QGhynf3J"}, {"Color": "#fd8d3c", "Time": "06:23:54", "Lon": "15.14", "Place": "Isole  Lipari", "Lat": "38.405", "Radius": 28.0, "Magn": "2.6", "Alpha": 0.4, "Date": "2013/10/28", "Prof": "189.2", "Id": "idVT4WDHF0z"}, {"Color": "#fecc5c", "Time": "12:08:41", "Lon": "13.936", "Place": "Adriatico  centro-sett.", "Lat": "43.698", "Radius": 9.0, "Magn": "2.3", "Alpha": 0.4, "Date": "2013/10/28", "Prof": "20.5", "Id": "idJUXXmGFgE"}, {"Color": "#fd8d3c", "Time": "17:09:27", "Lon": "14.938", "Place": "Etna", "Lat": "37.769", "Radius": 10.0, "Magn": "2.6", "Alpha": 0.4, "Date": "2013/10/28", "Prof": "23.9", "Id": "id8UOFgeIcc"}, {"Color": "#fecc5c", "Time": "21:27:22", "Lon": "15.776", "Place": "Stretto  di  Messina", "Lat": "38.252", "Radius": 22.0, "Magn": "2.2", "Alpha": 0.4, "Date": "2013/10/28", "Prof": "126", "Id": "idDa8MkBcPO"}, {"Color": "#fecc5c", "Time": "02:11:29", "Lon": "15.333", "Place": "Golfo  di  Augusta", "Lat": "36.995", "Radius": 7.0, "Magn": "2.2", "Alpha": 0.42, "Date": "2013/10/29", "Prof": "11.4", "Id": "idjCvieejxD"}, {"Color": "#fecc5c", "Time": "04:36:57", "Lon": "16.183", "Place": "Valle  del  Crati", "Lat": "39.353", "Radius": 4.0, "Magn": "2.1", "Alpha": 0.42, "Date": "2013/10/29", "Prof": "4.4", "Id": "id4YHSyinn5"}, {"Color": "#fecc5c", "Time": "16:53:59", "Lon": "15", "Place": "Etna", "Lat": "37.834", "Radius": 10.0, "Magn": "2", "Alpha": 0.42, "Date": "2013/10/29", "Prof": "25.6", "Id": "idtJkvXJ9nn"}, {"Color": "#fecc5c", "Time": "20:16:22", "Lon": "15.533", "Place": "Isole  Lipari", "Lat": "38.472", "Radius": 23.0, "Magn": "2.1", "Alpha": 0.42, "Date": "2013/10/29", "Prof": "133.5", "Id": "idCd3x7d2Ex"}, {"Color": "#fecc5c", "Time": "22:12:59", "Lon": "15.005", "Place": "Isole  Lipari", "Lat": "38.374", "Radius": 7.0, "Magn": "2.1", "Alpha": 0.42, "Date": "2013/10/29", "Prof": "12.7", "Id": "idy2kfaomoo"}, {"Color": "#fecc5c", "Time": "22:59:27", "Lon": "10.823", "Place": "Austria", "Lat": "47.276", "Radius": 6.0, "Magn": "2.3", "Alpha": 0.42, "Date": "2013/10/29", "Prof": "8.2", "Id": "idserI7oaYW"}, {"Color": "#fecc5c", "Time": "01:06:43", "Lon": "13.316", "Place": "Tirreno  meridionale  A", "Lat": "38.511", "Radius": 6.0, "Magn": "2.4", "Alpha": 0.44, "Date": "2013/10/30", "Prof": "9.8", "Id": "id7MKpHcqrx"}, {"Color": "#fd8d3c", "Time": "02:35:20", "Lon": "15.327", "Place": "Isole  Lipari", "Lat": "38.749", "Radius": 30.0, "Magn": "2.6", "Alpha": 0.44, "Date": "2013/10/30", "Prof": "227", "Id": "id1LTbkQBsh"}, {"Color": "#bd0026", "Time": "02:51:51", "Lon": "-73.32", "Place": "Off coast of central Chile", "Lat": "-34.41", "Radius": 6.0, "Magn": "6.1", "Alpha": 0.44, "Date": "2013/10/30", "Prof": "10", "Id": "id6TrLjKMe4"}, {"Color": "#fd8d3c", "Time": "03:04:53", "Lon": "13.19", "Place": "Mar  di  Sicilia", "Lat": "36.729", "Radius": 11.0, "Magn": "2.9", "Alpha": 0.44, "Date": "2013/10/30", "Prof": "30.4", "Id": "idzVgsl2qwA"}, {"Color": "#fecc5c", "Time": "05:46:15", "Lon": "15.489", "Place": "Stretto  di  Messina", "Lat": "37.872", "Radius": 11.0, "Magn": "2", "Alpha": 0.44, "Date": "2013/10/30", "Prof": "30.7", "Id": "idqwIdHtvyS"}, {"Color": "#fecc5c", "Time": "08:49:23", "Lon": "15.414", "Place": "Costa  calabra  occidentale", "Lat": "38.894", "Radius": 29.0, "Magn": "2.2", "Alpha": 0.44, "Date": "2013/10/30", "Prof": "216.6", "Id": "idBUR0bNnli"}, {"Color": "#fecc5c", "Time": "13:06:10", "Lon": "9.237", "Place": "Appennino  ligure", "Lat": "44.602", "Radius": 6.0, "Magn": "2", "Alpha": 0.44, "Date": "2013/10/30", "Prof": "8.2", "Id": "idGGBsw2IAs"}, {"Color": "#fecc5c", "Time": "13:22:26", "Lon": "15.713", "Place": "Costa  calabra  occidentale", "Lat": "38.921", "Radius": 26.0, "Magn": "2.3", "Alpha": 0.44, "Date": "2013/10/30", "Prof": "169.9", "Id": "id7NrDTuHDS"}, {"Color": "#fd8d3c", "Time": "15:38:48", "Lon": "9.241", "Place": "Appennino  ligure", "Lat": "44.58", "Radius": 5.0, "Magn": "2.9", "Alpha": 0.44, "Date": "2013/10/30", "Prof": "6.1", "Id": "idPDrmBHl9U"}, {"Color": "#fd8d3c", "Time": "18:02:49", "Lon": "15.677", "Place": "Costa  calabra  occidentale", "Lat": "39.252", "Radius": 30.0, "Magn": "2.6", "Alpha": 0.44, "Date": "2013/10/30", "Prof": "224.3", "Id": "id57Ybrbjbh"}, {"Color": "#fd8d3c", "Time": "18:25:02", "Lon": "10.804", "Place": "Colline  Metallifere", "Lat": "43.172", "Radius": 5.0, "Magn": "2.6", "Alpha": 0.44, "Date": "2013/10/30", "Prof": "6.7", "Id": "idaX4xcf86G"}, {"Color": "#fecc5c", "Time": "05:47:47", "Lon": "8.982", "Place": "Appennino  ligure", "Lat": "44.779", "Radius": 5.0, "Magn": "2.4", "Alpha": 0.47, "Date": "2013/10/31", "Prof": "7.2", "Id": "idXrOC3dsZP"}, {"Color": "#bd0026", "Time": "12:02:08", "Lon": "121.441", "Place": "Taiwan", "Lat": "23.591", "Radius": 6.0, "Magn": "6.6", "Alpha": 0.47, "Date": "2013/10/31", "Prof": "9.3", "Id": "idDzmqd8NjN"}, {"Color": "#fecc5c", "Time": "12:22:51", "Lon": "12.535", "Place": "Bacino  di  Gubbio", "Lat": "43.349", "Radius": 5.0, "Magn": "2.2", "Alpha": 0.47, "Date": "2013/10/31", "Prof": "7", "Id": "idpcJZ3wifm"}, {"Color": "#fecc5c", "Time": "16:38:11", "Lon": "15.394", "Place": "Mar  Ionio", "Lat": "37.13", "Radius": 7.0, "Magn": "2.4", "Alpha": 0.47, "Date": "2013/10/31", "Prof": "10.7", "Id": "ida3IM8HvmX"}, {"Color": "#fd8d3c", "Time": "18:46:22", "Lon": "12.486", "Place": "Prealpi  venete", "Lat": "46.242", "Radius": 5.0, "Magn": "3.2", "Alpha": 0.47, "Date": "2013/10/31", "Prof": "5.8", "Id": "idJx29tu0uw"}, {"Color": "#fecc5c", "Time": "21:10:24", "Lon": "13.726", "Place": "Adriatico  centro-sett.", "Lat": "43.552", "Radius": 6.0, "Magn": "2", "Alpha": 0.47, "Date": "2013/10/31", "Prof": "9.6", "Id": "idPljCNtY8D"}, {"Color": "#fd8d3c", "Time": "22:09:35", "Lon": "7.529", "Place": "Alpi  Marittime", "Lat": "43.988", "Radius": 6.0, "Magn": "3", "Alpha": 0.47, "Date": "2013/10/31", "Prof": "9.2", "Id": "idd74YX9DG2"}, {"Color": "#bd0026", "Time": "23:03:56", "Lon": "-71.7", "Place": "Near coast of central Chile", "Lat": "-30.31", "Radius": 6.0, "Magn": "6.5", "Alpha": 0.47, "Date": "2013/10/31", "Prof": "10", "Id": "idmfoXQWve9"}, {"Color": "#fd8d3c", "Time": "00:08:41", "Lon": "13.856", "Place": "Madonie", "Lat": "37.747", "Radius": 2.0, "Magn": "3.1", "Alpha": 0.49, "Date": "2013/11/01", "Prof": "1", "Id": "idRIHYhvFcW"}, {"Color": "#fecc5c", "Time": "01:54:31", "Lon": "13.856", "Place": "Madonie", "Lat": "37.717", "Radius": 5.0, "Magn": "2.2", "Alpha": 0.49, "Date": "2013/11/01", "Prof": "5.6", "Id": "idrsxeZ7fR6"}, {"Color": "#fd8d3c", "Time": "04:40:17", "Lon": "15.724", "Place": "Costa  calabra  occidentale", "Lat": "38.807", "Radius": 29.0, "Magn": "3.1", "Alpha": 0.49, "Date": "2013/11/01", "Prof": "211.2", "Id": "id5aORLEUas"}, {"Color": "#fecc5c", "Time": "06:52:30", "Lon": "13.673", "Place": "Monti  Sicani", "Lat": "37.579", "Radius": 6.0, "Magn": "2.2", "Alpha": 0.49, "Date": "2013/11/01", "Prof": "10.3", "Id": "idS6LBN8bPz"}, {"Color": "#fecc5c", "Time": "23:41:04", "Lon": "15.122", "Place": "Piana  del  Sele", "Lat": "40.592", "Radius": 4.0, "Magn": "2.3", "Alpha": 0.49, "Date": "2013/11/01", "Prof": "3.4", "Id": "idVIIB4hpLO"}, {"Color": "#fecc5c", "Time": "03:32:08", "Lon": "10.112", "Place": "Prealpi  lombarde", "Lat": "45.517", "Radius": 4.0, "Magn": "2.3", "Alpha": 0.51, "Date": "2013/11/02", "Prof": "4.6", "Id": "idouTnLzOY4"}, {"Color": "#fecc5c", "Time": "09:10:54", "Lon": "15.339", "Place": "Isole  Lipari", "Lat": "38.411", "Radius": 23.0, "Magn": "2.4", "Alpha": 0.51, "Date": "2013/11/02", "Prof": "131.6", "Id": "idUS2RhPXvE"}, {"Color": "#fecc5c", "Time": "09:28:08", "Lon": "13.418", "Place": "Gran  Sasso", "Lat": "42.509", "Radius": 7.0, "Magn": "2", "Alpha": 0.51, "Date": "2013/11/02", "Prof": "12.1", "Id": "idgr55pHSRQ"}, {"Color": "#fecc5c", "Time": "13:14:50", "Lon": "10.853", "Place": "Appennino  pistoiese", "Lat": "44.135", "Radius": 9.0, "Magn": "2.2", "Alpha": 0.51, "Date": "2013/11/02", "Prof": "19.5", "Id": "idy5y4xV1Fz"}, {"Color": "#bd0026", "Time": "18:53:47", "Lon": "-172.642", "Place": "Tonga Islands region", "Lat": "-19.157", "Radius": 6.0, "Magn": "6.4", "Alpha": 0.51, "Date": "2013/11/02", "Prof": "10", "Id": "id1fvCjbnfY"}, {"Color": "#fecc5c", "Time": "19:14:35", "Lon": "16.349", "Place": "Costa  calabra  meridionale", "Lat": "38.355", "Radius": 13.0, "Magn": "2.1", "Alpha": 0.51, "Date": "2013/11/02", "Prof": "45.5", "Id": "idKQBmeDi6j"}, {"Color": "#fecc5c", "Time": "20:30:21", "Lon": "16.277", "Place": "La  Sila", "Lat": "39.046", "Radius": 6.0, "Magn": "2.1", "Alpha": 0.51, "Date": "2013/11/02", "Prof": "10", "Id": "idNEgk6FfA7"}, {"Color": "#fecc5c", "Time": "06:49:12", "Lon": "15.434", "Place": "Golfi  di  Patti  e  di  Milazzo", "Lat": "38.363", "Radius": 21.0, "Magn": "2", "Alpha": 0.54, "Date": "2013/11/03", "Prof": "115.5", "Id": "idMS0Fsc3WK"}, {"Color": "#fd8d3c", "Time": "14:33:41", "Lon": "15.166", "Place": "Piana  del  Sele", "Lat": "40.594", "Radius": 3.0, "Magn": "2.7", "Alpha": 0.54, "Date": "2013/11/03", "Prof": "2.2", "Id": "idHTywG3kRL"}, {"Color": "#fecc5c", "Time": "14:57:38", "Lon": "15.127", "Place": "Piana  del  Sele", "Lat": "40.579", "Radius": 6.0, "Magn": "2", "Alpha": 0.54, "Date": "2013/11/03", "Prof": "8.1", "Id": "idU9l0K5XQR"}, {"Color": "#fecc5c", "Time": "21:42:44", "Lon": "8.29", "Place": "Switzerland", "Lat": "47.305", "Radius": 5.0, "Magn": "2.2", "Alpha": 0.54, "Date": "2013/11/03", "Prof": "7", "Id": "idm30EVvCW9"}, {"Color": "#fecc5c", "Time": "23:26:28", "Lon": "14.798", "Place": "Isole  Lipari", "Lat": "38.484", "Radius": 6.0, "Magn": "2.1", "Alpha": 0.54, "Date": "2013/11/03", "Prof": "8", "Id": "idPttEAf2mV"}, {"Color": "#fecc5c", "Time": "06:30:02", "Lon": "13.281", "Place": "Velino-Sirente", "Lat": "42.207", "Radius": 6.0, "Magn": "2.1", "Alpha": 0.56, "Date": "2013/11/04", "Prof": "9.1", "Id": "idffYxr089C"}, {"Color": "#fecc5c", "Time": "11:09:33", "Lon": "13.233", "Place": "Costa  marchig.  sett.  (Pesaro)", "Lat": "43.799", "Radius": 6.0, "Magn": "2", "Alpha": 0.56, "Date": "2013/11/04", "Prof": "9.8", "Id": "idcZeU3z7pf"}, {"Color": "#fecc5c", "Time": "20:59:14", "Lon": "11.102", "Place": "Pianura  padana  emiliana", "Lat": "44.885", "Radius": 4.0, "Magn": "2.1", "Alpha": 0.56, "Date": "2013/11/04", "Prof": "5", "Id": "idehKnHWWGy"}, {"Color": "#fd8d3c", "Time": "00:20:42", "Lon": "12.532", "Place": "Bacino  di  Gubbio", "Lat": "43.384", "Radius": 6.0, "Magn": "3.2", "Alpha": 0.58, "Date": "2013/11/05", "Prof": "8.2", "Id": "idv5OXOLEe5"}, {"Color": "#fd8d3c", "Time": "05:06:39", "Lon": "14.926", "Place": "Etna", "Lat": "37.656", "Radius": 9.0, "Magn": "3.1", "Alpha": 0.58, "Date": "2013/11/05", "Prof": "18.5", "Id": "idNnw8FqBbC"}, {"Color": "#fd8d3c", "Time": "05:07:50", "Lon": "14.926", "Place": "Etna", "Lat": "37.656", "Radius": 9.0, "Magn": "2.6", "Alpha": 0.58, "Date": "2013/11/05", "Prof": "18.5", "Id": "idRY4cnjJAc"}, {"Color": "#fd8d3c", "Time": "05:10:16", "Lon": "14.926", "Place": "Etna", "Lat": "37.656", "Radius": 9.0, "Magn": "3.4", "Alpha": 0.58, "Date": "2013/11/05", "Prof": "18.5", "Id": "idP46B9M1ym"}, {"Color": "#fd8d3c", "Time": "05:16:10", "Lon": "14.926", "Place": "Etna", "Lat": "37.656", "Radius": 9.0, "Magn": "2.8", "Alpha": 0.58, "Date": "2013/11/05", "Prof": "18.5", "Id": "idAmKDIniG8"}, {"Color": "#fecc5c", "Time": "05:20:02", "Lon": "14.913", "Place": "Etna", "Lat": "37.686", "Radius": 10.0, "Magn": "2.1", "Alpha": 0.58, "Date": "2013/11/05", "Prof": "25", "Id": "idqCFs0Yth9"}, {"Color": "#fd8d3c", "Time": "05:21:46", "Lon": "14.926", "Place": "Etna", "Lat": "37.656", "Radius": 9.0, "Magn": "2.7", "Alpha": 0.58, "Date": "2013/11/05", "Prof": "18.5", "Id": "idt9D4uhKhV"}, {"Color": "#fd8d3c", "Time": "05:29:58", "Lon": "14.926", "Place": "Etna", "Lat": "37.656", "Radius": 9.0, "Magn": "2.9", "Alpha": 0.58, "Date": "2013/11/05", "Prof": "18.5", "Id": "idUxKnhDfks"}, {"Color": "#fd8d3c", "Time": "05:33:04", "Lon": "14.926", "Place": "Etna", "Lat": "37.656", "Radius": 9.0, "Magn": "2.5", "Alpha": 0.58, "Date": "2013/11/05", "Prof": "18.5", "Id": "idSCYeBeAJN"}, {"Color": "#fecc5c", "Time": "10:42:03", "Lon": "14.938", "Place": "Etna", "Lat": "37.709", "Radius": 7.0, "Magn": "2.4", "Alpha": 0.58, "Date": "2013/11/05", "Prof": "13.9", "Id": "idfpmDbX0tk"}, {"Color": "#fecc5c", "Time": "15:26:52", "Lon": "14.909", "Place": "Etna", "Lat": "37.686", "Radius": 10.0, "Magn": "2.3", "Alpha": 0.58, "Date": "2013/11/05", "Prof": "24.9", "Id": "id9sNl4bRoZ"}, {"Color": "#fecc5c", "Time": "16:42:56", "Lon": "14.92", "Place": "Etna", "Lat": "37.685", "Radius": 8.0, "Magn": "2", "Alpha": 0.58, "Date": "2013/11/05", "Prof": "17.4", "Id": "iducoe5ZVtp"}, {"Color": "#fd8d3c", "Time": "17:25:23", "Lon": "16.01", "Place": "Pollino", "Lat": "39.877", "Radius": 6.0, "Magn": "2.8", "Alpha": 0.58, "Date": "2013/11/05", "Prof": "8.3", "Id": "id412AEOf8j"}, {"Color": "#fd8d3c", "Time": "17:26:45", "Lon": "16.004", "Place": "Pollino", "Lat": "39.863", "Radius": 5.0, "Magn": "3.3", "Alpha": 0.58, "Date": "2013/11/05", "Prof": "7.2", "Id": "idVrubqTroZ"}, {"Color": "#fecc5c", "Time": "17:38:34", "Lon": "14.793", "Place": "Monti  Nebrodi", "Lat": "38.005", "Radius": 5.0, "Magn": "2.2", "Alpha": 0.58, "Date": "2013/11/05", "Prof": "7.4", "Id": "idoU0eHPe30"}, {"Color": "#fecc5c", "Time": "23:20:54", "Lon": "14.794", "Place": "Monti  Nebrodi", "Lat": "38.004", "Radius": 5.0, "Magn": "2.3", "Alpha": 0.58, "Date": "2013/11/05", "Prof": "7.4", "Id": "idlNHOcvNO3"}, {"Color": "#fecc5c", "Time": "00:39:18", "Lon": "12.53", "Place": "Bacino  di  Gubbio", "Lat": "43.379", "Radius": 6.0, "Magn": "2.4", "Alpha": 0.61, "Date": "2013/11/06", "Prof": "8.5", "Id": "idQcdRwFj6c"}, {"Color": "#fecc5c", "Time": "00:59:28", "Lon": "14.888", "Place": "Irpinia", "Lat": "40.797", "Radius": 6.0, "Magn": "2", "Alpha": 0.61, "Date": "2013/11/06", "Prof": "9.1", "Id": "idCzqma0QVT"}, {"Color": "#fecc5c", "Time": "04:31:00", "Lon": "14.912", "Place": "Etna", "Lat": "37.703", "Radius": 8.0, "Magn": "2.4", "Alpha": 0.61, "Date": "2013/11/06", "Prof": "17", "Id": "idxTrZrIzah"}, {"Color": "#fecc5c", "Time": "04:44:00", "Lon": "14.913", "Place": "Etna", "Lat": "37.718", "Radius": 8.0, "Magn": "2.2", "Alpha": 0.61, "Date": "2013/11/06", "Prof": "16", "Id": "idif1y7efMl"}, {"Color": "#fecc5c", "Time": "04:45:00", "Lon": "14.929", "Place": "Etna", "Lat": "37.728", "Radius": 7.0, "Magn": "2.3", "Alpha": 0.61, "Date": "2013/11/06", "Prof": "12", "Id": "idGksVo9v7v"}, {"Color": "#fd8d3c", "Time": "00:55:48", "Lon": "15.602", "Place": "Costa  calabra  occidentale", "Lat": "38.754", "Radius": 25.0, "Magn": "2.6", "Alpha": 0.63, "Date": "2013/11/07", "Prof": "157.8", "Id": "idjN2Ge8Xt4"}, {"Color": "#fd8d3c", "Time": "04:17:23", "Lon": "11.267", "Place": "Pianura  padana  emiliana", "Lat": "44.874", "Radius": 4.0, "Magn": "2.7", "Alpha": 0.65, "Date": "2013/11/08", "Prof": "3.1", "Id": "iduZzr9dxRE"}, {"Color": "#fecc5c", "Time": "04:36:43", "Lon": "11.297", "Place": "Pianura  padana  emiliana", "Lat": "44.844", "Radius": 4.0, "Magn": "2", "Alpha": 0.65, "Date": "2013/11/08", "Prof": "5", "Id": "id3DxxvMNCK"}, {"Color": "#fecc5c", "Time": "19:11:37", "Lon": "14.602", "Place": "Isole  Lipari", "Lat": "38.519", "Radius": 6.0, "Magn": "2", "Alpha": 0.65, "Date": "2013/11/08", "Prof": "10", "Id": "id6U7WcnJvQ"}, {"Color": "#fd8d3c", "Time": "10:17:58", "Lon": "7.539", "Place": "Alpi  Marittime", "Lat": "43.984", "Radius": 6.0, "Magn": "2.7", "Alpha": 0.68, "Date": "2013/11/09", "Prof": "10.2", "Id": "id0pCMALTin"}, {"Color": "#fecc5c", "Time": "23:56:22", "Lon": "16.265", "Place": "Le  Murge", "Lat": "40.679", "Radius": 10.0, "Magn": "2.1", "Alpha": 0.68, "Date": "2013/11/09", "Prof": "26.7", "Id": "idCOVDZYNdK"}, {"Color": "#fecc5c", "Time": "04:54:10", "Lon": "7.261", "Place": "Alpi  Cozie", "Lat": "44.442", "Radius": 7.0, "Magn": "2.3", "Alpha": 0.7, "Date": "2013/11/10", "Prof": "12.8", "Id": "id0wCOi9jkO"}, {"Color": "#fecc5c", "Time": "05:57:43", "Lon": "14.46", "Place": "Monti  Iblei", "Lat": "37.117", "Radius": 11.0, "Magn": "2", "Alpha": 0.7, "Date": "2013/11/10", "Prof": "28.1", "Id": "id2foathiEa"}]