[{"Color": "#fecc5c", "Time": "06:53:35", "Lon": "15.974", "Place": "Mar  Ionio", "Lat": "37.316", "Radius": 9.0, "Magn": "2.1", "Alpha": 0.02, "Date": "2013/10/10", "Prof": "21.9", "Id": "idUoEYtrRu2"}, {"Color": "#fecc5c", "Time": "07:53:19", "Lon": "12.699", "Place": "Adriatico  centro-sett.", "Lat": "44.197", "Radius": 9.0, "Magn": "2.4", "Alpha": 0.02, "Date": "2013/10/10", "Prof": "20.4", "Id": "idm0R6hev3m"}, {"Color": "#fecc5c", "Time": "11:32:13", "Lon": "15.021", "Place": "Irpinia", "Lat": "40.986", "Radius": 9.0, "Magn": "2", "Alpha": 0.02, "Date": "2013/10/10", "Prof": "21.2", "Id": "idqOSNlF78i"}, {"Color": "#fecc5c", "Time": "14:38:59", "Lon": "15.669", "Place": "Costa  calabra  occidentale", "Lat": "38.957", "Radius": 28.0, "Magn": "2.2", "Alpha": 0.02, "Date": "2013/10/10", "Prof": "194.2", "Id": "idQda0Pv6iH"}, {"Color": "#fecc5c", "Time": "17:06:04", "Lon": "13.455", "Place": "Monti  della  Laga", "Lat": "42.6", "Radius": 6.0, "Magn": "2", "Alpha": 0.02, "Date": "2013/10/10", "Prof": "9", "Id": "id5W0wIm38K"}, {"Color": "#fecc5c", "Time": "18:58:53", "Lon": "16.476", "Place": "La  Sila", "Lat": "39.167", "Radius": 10.0, "Magn": "2.1", "Alpha": 0.02, "Date": "2013/10/10", "Prof": "23.5", "Id": "idy4uRsRDuA"}, {"Color": "#fecc5c", "Time": "21:19:27", "Lon": "12.557", "Place": "Bacino  di  Gubbio", "Lat": "43.364", "Radius": 5.0, "Magn": "2.3", "Alpha": 0.02, "Date": "2013/10/10", "Prof": "7.5", "Id": "ido2bFDboaR"}, {"Color": "#fd8d3c", "Time": "22:42:01", "Lon": "12.889", "Place": "Costa  marchig.  sett.  (Pesaro)", "Lat": "44.024", "Radius": 11.0, "Magn": "2.9", "Alpha": 0.02, "Date": "2013/10/10", "Prof": "31.1", "Id": "idrAIQFeCg3"}, {"Color": "#fecc5c", "Time": "01:38:08", "Lon": "16.057", "Place": "Pollino", "Lat": "39.877", "Radius": 6.0, "Magn": "2", "Alpha": 0.05, "Date": "2013/10/11", "Prof": "8.8", "Id": "id33vqtpNeI"}, {"Color": "#fecc5c", "Time": "04:48:30", "Lon": "14.968", "Place": "Irpinia", "Lat": "40.963", "Radius": 6.0, "Magn": "2", "Alpha": 0.05, "Date": "2013/10/11", "Prof": "10", "Id": "idSfFJf84B5"}, {"Color": "#fecc5c", "Time": "05:40:54", "Lon": "15.019", "Place": "Irpinia", "Lat": "40.972", "Radius": 9.0, "Magn": "2", "Alpha": 0.05, "Date": "2013/10/11", "Prof": "21.3", "Id": "idW2S9vbiVW"}, {"Color": "#fecc5c", "Time": "05:45:24", "Lon": "13.318", "Place": "Monti  della  Laga", "Lat": "42.544", "Radius": 6.0, "Magn": "2.3", "Alpha": 0.05, "Date": "2013/10/11", "Prof": "9.7", "Id": "idUDPf1pD3a"}, {"Color": "#fecc5c", "Time": "15:24:49", "Lon": "12.558", "Place": "Bacino  di  Gubbio", "Lat": "43.359", "Radius": 5.0, "Magn": "2.1", "Alpha": 0.05, "Date": "2013/10/11", "Prof": "5.7", "Id": "idx0KaZIiyp"}, {"Color": "#fecc5c", "Time": "09:22:58", "Lon": "16.011", "Place": "Monte  Alpi-Sirino", "Lat": "39.963", "Radius": 6.0, "Magn": "2.1", "Alpha": 0.07, "Date": "2013/10/12", "Prof": "9.1", "Id": "idMLi2LjGJS"}, {"Color": "#bd0026", "Time": "13:11:53", "Lon": "23.28", "Place": "Crete, Greece", "Lat": "35.52", "Radius": 14.0, "Magn": "6.4", "Alpha": 0.07, "Date": "2013/10/12", "Prof": "52", "Id": "idyjHcQpxFa"}, {"Color": "#fecc5c", "Time": "15:03:01", "Lon": "12.53", "Place": "Val  Nerina", "Lat": "42.628", "Radius": 6.0, "Magn": "2.2", "Alpha": 0.07, "Date": "2013/10/12", "Prof": "8.3", "Id": "idGPEyimnt0"}, {"Color": "#fecc5c", "Time": "13:18:14", "Lon": "12.551", "Place": "Bacino  di  Gubbio", "Lat": "43.37", "Radius": 6.0, "Magn": "2", "Alpha": 0.09, "Date": "2013/10/13", "Prof": "8.6", "Id": "idxWwca3BDH"}, {"Color": "#fecc5c", "Time": "15:45:04", "Lon": "12.553", "Place": "Bacino  di  Gubbio", "Lat": "43.365", "Radius": 5.0, "Magn": "2.4", "Alpha": 0.09, "Date": "2013/10/13", "Prof": "7.3", "Id": "idgzxePUoJv"}, {"Color": "#fecc5c", "Time": "18:57:08", "Lon": "15.207", "Place": "Golfo  di  Catania", "Lat": "37.553", "Radius": 9.0, "Magn": "2.4", "Alpha": 0.09, "Date": "2013/10/13", "Prof": "22.2", "Id": "idmxwN8CbEX"}, {"Color": "#fecc5c", "Time": "23:57:48", "Lon": "15.524", "Place": "Isole  Lipari", "Lat": "38.495", "Radius": 23.0, "Magn": "2.2", "Alpha": 0.09, "Date": "2013/10/13", "Prof": "134.1", "Id": "idlJ535Qz3u"}, {"Color": "#fecc5c", "Time": "04:03:19", "Lon": "13.688", "Place": "Marsica", "Lat": "41.879", "Radius": 6.0, "Magn": "2", "Alpha": 0.12, "Date": "2013/10/14", "Prof": "10.1", "Id": "id3SEwih7SH"}, {"Color": "#fd8d3c", "Time": "13:00:55", "Lon": "12.178", "Place": "Tirreno  meridionale  B", "Lat": "38.221", "Radius": 10.0, "Magn": "3.4", "Alpha": 0.12, "Date": "2013/10/14", "Prof": "23.8", "Id": "id57Q2GY8FA"}, {"Color": "#fecc5c", "Time": "15:16:17", "Lon": "15.239", "Place": "Isole  Lipari", "Lat": "38.842", "Radius": 6.0, "Magn": "2", "Alpha": 0.12, "Date": "2013/10/14", "Prof": "9.4", "Id": "idipfGy9dH6"}, {"Color": "#fecc5c", "Time": "16:26:33", "Lon": "8.987", "Place": "Appennino  ligure", "Lat": "44.8", "Radius": 6.0, "Magn": "2.4", "Alpha": 0.12, "Date": "2013/10/14", "Prof": "9.9", "Id": "idrguHXkCyd"}, {"Color": "#fd8d3c", "Time": "19:48:49", "Lon": "12.071", "Place": "Tirreno  meridionale  B", "Lat": "38.206", "Radius": 9.0, "Magn": "3.2", "Alpha": 0.12, "Date": "2013/10/14", "Prof": "21.4", "Id": "id7BIputbFO"}, {"Color": "#fecc5c", "Time": "22:07:57", "Lon": "12.585", "Place": "Bacino  di  Gubbio", "Lat": "43.328", "Radius": 6.0, "Magn": "2.1", "Alpha": 0.12, "Date": "2013/10/14", "Prof": "9", "Id": "id9NQ1R5Xw3"}, {"Color": "#bd0026", "Time": "00:12:33", "Lon": "124.08", "Place": "Mindanao, Philippine Islands", "Lat": "9.9", "Radius": 14.0, "Magn": "7.2", "Alpha": 0.14, "Date": "2013/10/15", "Prof": "48", "Id": "idFbxSwgjaa"}, {"Color": "#fd8d3c", "Time": "02:47:13", "Lon": "7.256", "Place": "Alpi  Cozie", "Lat": "44.408", "Radius": 8.0, "Magn": "3.4", "Alpha": 0.14, "Date": "2013/10/15", "Prof": "16", "Id": "idWVCelCrTY"}, {"Color": "#fecc5c", "Time": "10:48:03", "Lon": "13.773", "Place": "Adriatico  centro-sett.", "Lat": "43.63", "Radius": 6.0, "Magn": "2", "Alpha": 0.14, "Date": "2013/10/15", "Prof": "10.5", "Id": "idZzhjyJb8k"}, {"Color": "#fecc5c", "Time": "18:03:17", "Lon": "15.517", "Place": "Isole  Lipari", "Lat": "38.483", "Radius": 23.0, "Magn": "2.4", "Alpha": 0.14, "Date": "2013/10/15", "Prof": "132.6", "Id": "id3r3ORks4d"}, {"Color": "#fecc5c", "Time": "18:57:54", "Lon": "10.2", "Place": "Lunigiana", "Lat": "44.209", "Radius": 7.0, "Magn": "2.2", "Alpha": 0.14, "Date": "2013/10/15", "Prof": "10.6", "Id": "idPpfDdAJ6I"}, {"Color": "#bd0026", "Time": "19:33:12", "Lon": "26.59", "Place": "Romania", "Lat": "45.63", "Radius": 24.0, "Magn": "4.8", "Alpha": 0.14, "Date": "2013/10/15", "Prof": "150", "Id": "idDkw9iHAUc"}, {"Color": "#bd0026", "Time": "10:31:00", "Lon": "154.9", "Place": "Bougainville - Solomon Islands region", "Lat": "-6.6", "Radius": 11.0, "Magn": "7.1", "Alpha": 0.16, "Date": "2013/10/16", "Prof": "33", "Id": "iddcL4WlhZL"}, {"Color": "#fecc5c", "Time": "13:34:25", "Lon": "13.942", "Place": "Monti  della  Meta-Le  Mainarde", "Lat": "41.682", "Radius": 7.0, "Magn": "2.3", "Alpha": 0.16, "Date": "2013/10/16", "Prof": "13.8", "Id": "idpXhmuWknQ"}, {"Color": "#fecc5c", "Time": "01:28:33", "Lon": "15.291", "Place": "Golfo  di  Catania", "Lat": "37.688", "Radius": 10.0, "Magn": "2", "Alpha": 0.19, "Date": "2013/10/17", "Prof": "23.5", "Id": "idd5IX2mvJK"}, {"Color": "#fecc5c", "Time": "04:53:19", "Lon": "16.461", "Place": "La  Sila", "Lat": "39.182", "Radius": 6.0, "Magn": "2", "Alpha": 0.19, "Date": "2013/10/17", "Prof": "9", "Id": "idebB1MMiwY"}, {"Color": "#fd8d3c", "Time": "10:27:08", "Lon": "6.264", "Place": "Western Mediterranean Sea", "Lat": "42.924", "Radius": 6.0, "Magn": "2.6", "Alpha": 0.19, "Date": "2013/10/17", "Prof": "10", "Id": "id7oClVuYGZ"}, {"Color": "#fecc5c", "Time": "11:32:39", "Lon": "11.238", "Place": "Pianura  padana  emiliana", "Lat": "44.861", "Radius": 6.0, "Magn": "2.2", "Alpha": 0.19, "Date": "2013/10/17", "Prof": "8.5", "Id": "idymIUYzPjM"}, {"Color": "#fd8d3c", "Time": "20:01:59", "Lon": "13.799", "Place": "Adriatico  centro-sett.", "Lat": "43.528", "Radius": 6.0, "Magn": "2.7", "Alpha": 0.19, "Date": "2013/10/17", "Prof": "10.4", "Id": "idF72BkFlTo"}, {"Color": "#fecc5c", "Time": "04:55:32", "Lon": "13.804", "Place": "Adriatico  centro-sett.", "Lat": "43.541", "Radius": 6.0, "Magn": "2.2", "Alpha": 0.21, "Date": "2013/10/18", "Prof": "10.3", "Id": "idYuYdzB0tI"}, {"Color": "#fd8d3c", "Time": "08:03:44", "Lon": "14.914", "Place": "Costa  siciliana  settentrionale", "Lat": "38.111", "Radius": 8.0, "Magn": "2.7", "Alpha": 0.21, "Date": "2013/10/18", "Prof": "14.6", "Id": "id0odJJ4c9i"}, {"Color": "#fd8d3c", "Time": "11:05:21", "Lon": "14.966", "Place": "Monti  Iblei", "Lat": "36.785", "Radius": 3.0, "Magn": "3", "Alpha": 0.21, "Date": "2013/10/18", "Prof": "1.8", "Id": "id3bBEdVIZW"}, {"Color": "#fecc5c", "Time": "11:14:24", "Lon": "14.867", "Place": "Isole  Lipari", "Lat": "38.361", "Radius": 6.0, "Magn": "2.2", "Alpha": 0.21, "Date": "2013/10/18", "Prof": "7.6", "Id": "idrSSI5JlSL"}, {"Color": "#fd8d3c", "Time": "11:44:00", "Lon": "10.289", "Place": "Costa  toscana  settentrionale", "Lat": "43.685", "Radius": 6.0, "Magn": "2.6", "Alpha": 0.21, "Date": "2013/10/18", "Prof": "10.3", "Id": "idrUPSxW9rc"}, {"Color": "#fecc5c", "Time": "19:44:21", "Lon": "16.151", "Place": "Le  Serre", "Lat": "38.382", "Radius": 7.0, "Magn": "2", "Alpha": 0.21, "Date": "2013/10/18", "Prof": "10.9", "Id": "idvJOxbdDMj"}, {"Color": "#fd8d3c", "Time": "20:50:52", "Lon": "15.205", "Place": "Irpinia", "Lat": "40.798", "Radius": 8.0, "Magn": "3", "Alpha": 0.21, "Date": "2013/10/18", "Prof": "14.3", "Id": "idUIcTiUoWn"}, {"Color": "#fd8d3c", "Time": "02:15:28", "Lon": "12.526", "Place": "Bacino  di  Gubbio", "Lat": "43.377", "Radius": 6.0, "Magn": "3.2", "Alpha": 0.23, "Date": "2013/10/19", "Prof": "8.2", "Id": "idH0WWUPKAR"}, {"Color": "#fecc5c", "Time": "02:19:34", "Lon": "12.532", "Place": "Bacino  di  Gubbio", "Lat": "43.38", "Radius": 6.0, "Magn": "2.1", "Alpha": 0.23, "Date": "2013/10/19", "Prof": "8.1", "Id": "idFSSM3tU6N"}, {"Color": "#fecc5c", "Time": "05:33:35", "Lon": "12.529", "Place": "Bacino  di  Gubbio", "Lat": "43.379", "Radius": 6.0, "Magn": "2", "Alpha": 0.23, "Date": "2013/10/19", "Prof": "9.2", "Id": "idQq42HA0ph"}, {"Color": "#fd8d3c", "Time": "11:04:26", "Lon": "15.152", "Place": "Piana  del  Sele", "Lat": "40.602", "Radius": 6.0, "Magn": "2.6", "Alpha": 0.23, "Date": "2013/10/19", "Prof": "10", "Id": "idW9S8N72UE"}, {"Color": "#fd8d3c", "Time": "11:08:02", "Lon": "15.169", "Place": "Piana  del  Sele", "Lat": "40.59", "Radius": 6.0, "Magn": "2.7", "Alpha": 0.23, "Date": "2013/10/19", "Prof": "9.5", "Id": "idPkCo0rVTc"}, {"Color": "#fd8d3c", "Time": "12:29:35", "Lon": "10.274", "Place": "Costa  toscana  settentrionale", "Lat": "43.675", "Radius": 6.0, "Magn": "3.4", "Alpha": 0.23, "Date": "2013/10/19", "Prof": "9.9", "Id": "idB7N4f5T4a"}, {"Color": "#fecc5c", "Time": "12:32:28", "Lon": "10.288", "Place": "Costa  toscana  settentrionale", "Lat": "43.682", "Radius": 6.0, "Magn": "2", "Alpha": 0.23, "Date": "2013/10/19", "Prof": "10.4", "Id": "idKGx0qJY7Q"}, {"Color": "#fd8d3c", "Time": "16:21:57", "Lon": "8.999", "Place": "Appennino  ligure", "Lat": "44.77", "Radius": 9.0, "Magn": "3.4", "Alpha": 0.23, "Date": "2013/10/19", "Prof": "22.3", "Id": "idqgQ6t9O6u"}, {"Color": "#bd0026", "Time": "17:54:56", "Lon": "-110.178", "Place": "Gulf of California, Mexico", "Lat": "26.27", "Radius": 2.0, "Magn": "6.5", "Alpha": 0.23, "Date": "2013/10/19", "Prof": "1", "Id": "idmBQLR4UHw"}, {"Color": "#fecc5c", "Time": "19:15:18", "Lon": "15.903", "Place": "Costa  calabra  occidentale", "Lat": "39.077", "Radius": 16.0, "Magn": "2", "Alpha": 0.23, "Date": "2013/10/19", "Prof": "60.8", "Id": "idZ2vROUiBo"}, {"Color": "#fecc5c", "Time": "01:20:58", "Lon": "13.332", "Place": "Monti  Sibillini", "Lat": "42.857", "Radius": 10.0, "Magn": "2", "Alpha": 0.26, "Date": "2013/10/20", "Prof": "22.9", "Id": "idhXVO5xlUp"}, {"Color": "#fecc5c", "Time": "07:51:08", "Lon": "9.022", "Place": "Appennino  ligure", "Lat": "44.732", "Radius": 9.0, "Magn": "2.3", "Alpha": 0.26, "Date": "2013/10/20", "Prof": "20.9", "Id": "idXRIuvJNUc"}, {"Color": "#fecc5c", "Time": "07:53:21", "Lon": "9.016", "Place": "Appennino  ligure", "Lat": "44.717", "Radius": 6.0, "Magn": "2.4", "Alpha": 0.26, "Date": "2013/10/20", "Prof": "9.7", "Id": "idEu1xwxLtB"}, {"Color": "#fecc5c", "Time": "03:06:42", "Lon": "12.917", "Place": "Valle  del  Belice", "Lat": "37.632", "Radius": 11.0, "Magn": "2", "Alpha": 0.28, "Date": "2013/10/21", "Prof": "30.8", "Id": "idmDXqguWXS"}, {"Color": "#fecc5c", "Time": "09:49:03", "Lon": "12.547", "Place": "Bacino  di  Gubbio", "Lat": "43.379", "Radius": 5.0, "Magn": "2", "Alpha": 0.28, "Date": "2013/10/21", "Prof": "5.2", "Id": "idLKNyrLw0a"}, {"Color": "#fecc5c", "Time": "12:42:48", "Lon": "13.723", "Place": "Alpi  Giulie", "Lat": "46.317", "Radius": 4.0, "Magn": "2.4", "Alpha": 0.28, "Date": "2013/10/21", "Prof": "3.1", "Id": "idp8DPlqExy"}, {"Color": "#fecc5c", "Time": "15:00:36", "Lon": "14.813", "Place": "Isole  Lipari", "Lat": "38.458", "Radius": 4.0, "Magn": "2", "Alpha": 0.28, "Date": "2013/10/21", "Prof": "4.4", "Id": "idqbhVyeUc5"}, {"Color": "#fd8d3c", "Time": "19:47:39", "Lon": "12.743", "Place": "Valle  del  Topino", "Lat": "42.777", "Radius": 5.0, "Magn": "2.6", "Alpha": 0.28, "Date": "2013/10/21", "Prof": "6.9", "Id": "idlV0N0EUtc"}, {"Color": "#fecc5c", "Time": "01:13:33", "Lon": "15.325", "Place": "Isole  Lipari", "Lat": "38.565", "Radius": 29.0, "Magn": "2.2", "Alpha": 0.3, "Date": "2013/10/22", "Prof": "204.8", "Id": "idkAuMZhaqe"}, {"Color": "#fd8d3c", "Time": "03:34:51", "Lon": "10.152", "Place": "Lunigiana", "Lat": "44.199", "Radius": 6.0, "Magn": "2.5", "Alpha": 0.3, "Date": "2013/10/22", "Prof": "9.6", "Id": "idn2cHyMvpJ"}, {"Color": "#fecc5c", "Time": "15:29:59", "Lon": "10.201", "Place": "Alpi  Apuane", "Lat": "44.186", "Radius": 6.0, "Magn": "2.4", "Alpha": 0.3, "Date": "2013/10/22", "Prof": "9.3", "Id": "idS6HSOq2pe"}, {"Color": "#fd8d3c", "Time": "00:31:22", "Lon": "13.411", "Place": "Monti  della  Laga", "Lat": "42.551", "Radius": 9.0, "Magn": "3.2", "Alpha": 0.33, "Date": "2013/10/23", "Prof": "18.2", "Id": "idUTvuEtfK9"}, {"Color": "#fecc5c", "Time": "03:01:09", "Lon": "15.276", "Place": "Irpinia", "Lat": "40.766", "Radius": 6.0, "Magn": "2", "Alpha": 0.33, "Date": "2013/10/23", "Prof": "8.8", "Id": "idqla0qRVmM"}, {"Color": "#fd8d3c", "Time": "03:45:41", "Lon": "12.754", "Place": "Valle  del  Topino", "Lat": "42.778", "Radius": 6.0, "Magn": "2.6", "Alpha": 0.33, "Date": "2013/10/23", "Prof": "8", "Id": "id6A0IFcn0J"}, {"Color": "#fecc5c", "Time": "10:01:49", "Lon": "15.205", "Place": "Isole  Lipari", "Lat": "38.442", "Radius": 24.0, "Magn": "2.3", "Alpha": 0.33, "Date": "2013/10/23", "Prof": "147.4", "Id": "idmuMldlSgj"}, {"Color": "#fd8d3c", "Time": "11:06:21", "Lon": "12.653", "Place": "Monti  Martani", "Lat": "42.796", "Radius": 6.0, "Magn": "2.9", "Alpha": 0.33, "Date": "2013/10/23", "Prof": "8", "Id": "idsfQy8N1Sw"}, {"Color": "#fecc5c", "Time": "02:41:26", "Lon": "14.845", "Place": "Golfi  di  Patti  e  di  Milazzo", "Lat": "38.237", "Radius": 22.0, "Magn": "2.1", "Alpha": 0.35, "Date": "2013/10/24", "Prof": "124.4", "Id": "id2TKTktBO7"}, {"Color": "#fecc5c", "Time": "04:32:00", "Lon": "12.881", "Place": "Reatino", "Lat": "42.41", "Radius": 6.0, "Magn": "2", "Alpha": 0.35, "Date": "2013/10/24", "Prof": "8", "Id": "idcqpECZGg0"}, {"Color": "#fecc5c", "Time": "07:32:29", "Lon": "11.95", "Place": "Casentino", "Lat": "43.795", "Radius": 5.0, "Magn": "2.4", "Alpha": 0.35, "Date": "2013/10/24", "Prof": "6.5", "Id": "idh1UkW4jk3"}, {"Color": "#fd8d3c", "Time": "09:17:00", "Lon": "10.503", "Place": "Frignano", "Lat": "44.269", "Radius": 8.0, "Magn": "3.1", "Alpha": 0.37, "Date": "2013/10/25", "Prof": "17.8", "Id": "id1Ex8K4Yoc"}, {"Color": "#fecc5c", "Time": "10:38:22", "Lon": "15.002", "Place": "Etna", "Lat": "37.864", "Radius": 11.0, "Magn": "2.1", "Alpha": 0.37, "Date": "2013/10/25", "Prof": "29.3", "Id": "idi4NkBM87Z"}, {"Color": "#fecc5c", "Time": "12:04:31", "Lon": "15.004", "Place": "Etna", "Lat": "37.856", "Radius": 12.0, "Magn": "2.1", "Alpha": 0.37, "Date": "2013/10/25", "Prof": "33.8", "Id": "id3GIdT9NZd"}, {"Color": "#fd8d3c", "Time": "12:05:00", "Lon": "14.99", "Place": "Etna", "Lat": "37.84", "Radius": 9.0, "Magn": "2.6", "Alpha": 0.37, "Date": "2013/10/25", "Prof": "22.5", "Id": "idt9VfgAbzJ"}, {"Color": "#fecc5c", "Time": "12:06:12", "Lon": "14.991", "Place": "Etna", "Lat": "37.856", "Radius": 11.0, "Magn": "2", "Alpha": 0.37, "Date": "2013/10/25", "Prof": "29.7", "Id": "idZR2D97c26"}, {"Color": "#fecc5c", "Time": "12:09:33", "Lon": "14.986", "Place": "Etna", "Lat": "37.818", "Radius": 6.0, "Magn": "2", "Alpha": 0.37, "Date": "2013/10/25", "Prof": "9.2", "Id": "idgHdVkMj8N"}, {"Color": "#fecc5c", "Time": "12:10:30", "Lon": "15.016", "Place": "Etna", "Lat": "37.851", "Radius": 11.0, "Magn": "2.2", "Alpha": 0.37, "Date": "2013/10/25", "Prof": "29.5", "Id": "idFfKXZGZk8"}, {"Color": "#fecc5c", "Time": "12:11:30", "Lon": "14.998", "Place": "Etna", "Lat": "37.837", "Radius": 10.0, "Magn": "2.1", "Alpha": 0.37, "Date": "2013/10/25", "Prof": "24.9", "Id": "idiPWByuSSe"}, {"Color": "#fecc5c", "Time": "12:24:38", "Lon": "11.141", "Place": "Pianura  padana  lombarda", "Lat": "44.957", "Radius": 4.0, "Magn": "2.2", "Alpha": 0.37, "Date": "2013/10/25", "Prof": "5", "Id": "idGCRtB5ZFB"}, {"Color": "#fecc5c", "Time": "12:53:13", "Lon": "14.989", "Place": "Etna", "Lat": "37.844", "Radius": 10.0, "Magn": "2.2", "Alpha": 0.37, "Date": "2013/10/25", "Prof": "25.7", "Id": "idUZRyzIwcE"}, {"Color": "#fecc5c", "Time": "12:59:05", "Lon": "14.997", "Place": "Etna", "Lat": "37.844", "Radius": 11.0, "Magn": "2", "Alpha": 0.37, "Date": "2013/10/25", "Prof": "29.9", "Id": "id3VtMS9Rsc"}, {"Color": "#fecc5c", "Time": "13:46:16", "Lon": "15.001", "Place": "Etna", "Lat": "37.875", "Radius": 10.0, "Magn": "2.1", "Alpha": 0.37, "Date": "2013/10/25", "Prof": "26.4", "Id": "idNBXQxnm95"}, {"Color": "#fecc5c", "Time": "14:32:21", "Lon": "15.009", "Place": "Etna", "Lat": "37.818", "Radius": 13.0, "Magn": "2.1", "Alpha": 0.37, "Date": "2013/10/25", "Prof": "39.6", "Id": "idd5zd6LCxy"}, {"Color": "#fecc5c", "Time": "15:41:01", "Lon": "14.991", "Place": "Etna", "Lat": "37.837", "Radius": 10.0, "Magn": "2.2", "Alpha": 0.37, "Date": "2013/10/25", "Prof": "26.6", "Id": "idtweOv67SN"}, {"Color": "#bd0026", "Time": "17:10:16", "Lon": "144.663", "Place": "Off east coast of Honshu, Japan", "Lat": "37.194", "Radius": 6.0, "Magn": "7.3", "Alpha": 0.37, "Date": "2013/10/25", "Prof": "10", "Id": "idZ49JhRzly"}, {"Color": "#fecc5c", "Time": "17:54:29", "Lon": "13.896", "Place": "Bacino  di  Sulmona", "Lat": "42.177", "Radius": 6.0, "Magn": "2", "Alpha": 0.37, "Date": "2013/10/25", "Prof": "10.2", "Id": "idzW6PgYdtT"}, {"Color": "#fd8d3c", "Time": "01:20:25", "Lon": "15.002", "Place": "Etna", "Lat": "37.855", "Radius": 10.0, "Magn": "2.8", "Alpha": 0.4, "Date": "2013/10/26", "Prof": "24", "Id": "idm9RDH4jmx"}, {"Color": "#fecc5c", "Time": "01:23:20", "Lon": "14.999", "Place": "Etna", "Lat": "37.845", "Radius": 10.0, "Magn": "2.2", "Alpha": 0.4, "Date": "2013/10/26", "Prof": "27.3", "Id": "idDyIdfjVHd"}, {"Color": "#fecc5c", "Time": "03:11:56", "Lon": "15.005", "Place": "Etna", "Lat": "37.845", "Radius": 11.0, "Magn": "2.3", "Alpha": 0.4, "Date": "2013/10/26", "Prof": "29.2", "Id": "id6vokCQvoy"}, {"Color": "#ffffb2", "Time": "07:59:27", "Lon": "16.225", "Place": "Pollino", "Lat": "39.834", "Radius": 6.0, "Magn": "1.5", "Alpha": 0.4, "Date": "2013/10/26", "Prof": "8.2", "Id": "id9ugboZnMy"}, {"Color": "#fecc5c", "Time": "09:55:01", "Lon": "13.617", "Place": "Tirreno  meridionale  A", "Lat": "38.342", "Radius": 6.0, "Magn": "2.1", "Alpha": 0.4, "Date": "2013/10/26", "Prof": "10.5", "Id": "id969FCnpdX"}, {"Color": "#fecc5c", "Time": "20:46:42", "Lon": "14.97", "Place": "Etna", "Lat": "37.85", "Radius": 10.0, "Magn": "2.2", "Alpha": 0.4, "Date": "2013/10/26", "Prof": "25", "Id": "idHQnnqx6ka"}, {"Color": "#fecc5c", "Time": "21:39:49", "Lon": "10.835", "Place": "Appennino  modenese", "Lat": "44.441", "Radius": 14.0, "Magn": "2", "Alpha": 0.4, "Date": "2013/10/26", "Prof": "46.4", "Id": "idbYNkNSOgJ"}, {"Color": "#fd8d3c", "Time": "07:26:30", "Lon": "8.976", "Place": "Appennino  ligure", "Lat": "44.771", "Radius": 6.0, "Magn": "3.1", "Alpha": 0.42, "Date": "2013/10/27", "Prof": "10.4", "Id": "idXByAxe6UP"}, {"Color": "#fecc5c", "Time": "18:30:19", "Lon": "15.798", "Place": "Appennino  Lucano", "Lat": "40.544", "Radius": 10.0, "Magn": "2", "Alpha": 0.42, "Date": "2013/10/27", "Prof": "23.1", "Id": "idMrizOcfNS"}, {"Color": "#fd8d3c", "Time": "23:42:07", "Lon": "14.031", "Place": "Marsica", "Lat": "41.751", "Radius": 6.0, "Magn": "2.6", "Alpha": 0.42, "Date": "2013/10/27", "Prof": "9.7", "Id": "idn1kW2Ifaz"}, {"Color": "#fecc5c", "Time": "04:13:11", "Lon": "14.492", "Place": "Monti  Nebrodi", "Lat": "37.856", "Radius": 6.0, "Magn": "2.4", "Alpha": 0.44, "Date": "2013/10/28", "Prof": "10.5", "Id": "idiSepxdDOS"}, {"Color": "#fecc5c", "Time": "04:33:27", "Lon": "9.278", "Place": "Valle  del  Trebbia", "Lat": "44.584", "Radius": 6.0, "Magn": "2.2", "Alpha": 0.44, "Date": "2013/10/28", "Prof": "8", "Id": "idnZozjsAbt"}, {"Color": "#fd8d3c", "Time": "06:23:54", "Lon": "15.394", "Place": "Isole  Lipari", "Lat": "38.682", "Radius": 29.0, "Magn": "2.9", "Alpha": 0.44, "Date": "2013/10/28", "Prof": "203.2", "Id": "idv79x8RABp"}, {"Color": "#fd8d3c", "Time": "06:23:54", "Lon": "15.14", "Place": "Isole  Lipari", "Lat": "38.405", "Radius": 28.0, "Magn": "2.6", "Alpha": 0.44, "Date": "2013/10/28", "Prof": "189.2", "Id": "idulsbZHLqF"}, {"Color": "#fecc5c", "Time": "12:08:41", "Lon": "13.936", "Place": "Adriatico  centro-sett.", "Lat": "43.698", "Radius": 9.0, "Magn": "2.3", "Alpha": 0.44, "Date": "2013/10/28", "Prof": "20.5", "Id": "idG6P9nhkEf"}, {"Color": "#fd8d3c", "Time": "17:09:27", "Lon": "14.938", "Place": "Etna", "Lat": "37.769", "Radius": 10.0, "Magn": "2.6", "Alpha": 0.44, "Date": "2013/10/28", "Prof": "23.9", "Id": "idAMPLNor53"}, {"Color": "#fecc5c", "Time": "21:27:22", "Lon": "15.776", "Place": "Stretto  di  Messina", "Lat": "38.252", "Radius": 22.0, "Magn": "2.2", "Alpha": 0.44, "Date": "2013/10/28", "Prof": "126", "Id": "id04JCSgKBM"}, {"Color": "#fecc5c", "Time": "02:11:29", "Lon": "15.333", "Place": "Golfo  di  Augusta", "Lat": "36.995", "Radius": 7.0, "Magn": "2.2", "Alpha": 0.47, "Date": "2013/10/29", "Prof": "11.4", "Id": "idjVJ4nk721"}, {"Color": "#fecc5c", "Time": "04:36:57", "Lon": "16.183", "Place": "Valle  del  Crati", "Lat": "39.353", "Radius": 4.0, "Magn": "2.1", "Alpha": 0.47, "Date": "2013/10/29", "Prof": "4.4", "Id": "idrrTj1Y07h"}, {"Color": "#fecc5c", "Time": "16:53:59", "Lon": "15", "Place": "Etna", "Lat": "37.834", "Radius": 10.0, "Magn": "2", "Alpha": 0.47, "Date": "2013/10/29", "Prof": "25.6", "Id": "idyrjxjn6n7"}, {"Color": "#fecc5c", "Time": "20:16:22", "Lon": "15.533", "Place": "Isole  Lipari", "Lat": "38.472", "Radius": 23.0, "Magn": "2.1", "Alpha": 0.47, "Date": "2013/10/29", "Prof": "133.5", "Id": "idDLar94Yxi"}, {"Color": "#fecc5c", "Time": "22:12:59", "Lon": "15.005", "Place": "Isole  Lipari", "Lat": "38.374", "Radius": 7.0, "Magn": "2.1", "Alpha": 0.47, "Date": "2013/10/29", "Prof": "12.7", "Id": "idSFUI0Ze66"}, {"Color": "#fecc5c", "Time": "22:59:27", "Lon": "10.823", "Place": "Austria", "Lat": "47.276", "Radius": 6.0, "Magn": "2.3", "Alpha": 0.47, "Date": "2013/10/29", "Prof": "8.2", "Id": "idq1w6hlfe4"}, {"Color": "#fecc5c", "Time": "01:06:43", "Lon": "13.316", "Place": "Tirreno  meridionale  A", "Lat": "38.511", "Radius": 6.0, "Magn": "2.4", "Alpha": 0.49, "Date": "2013/10/30", "Prof": "9.8", "Id": "idiNnt91GYZ"}, {"Color": "#fd8d3c", "Time": "02:35:20", "Lon": "15.327", "Place": "Isole  Lipari", "Lat": "38.749", "Radius": 30.0, "Magn": "2.6", "Alpha": 0.49, "Date": "2013/10/30", "Prof": "227", "Id": "idmEmB3AxVu"}, {"Color": "#bd0026", "Time": "02:51:51", "Lon": "-73.32", "Place": "Off coast of central Chile", "Lat": "-34.41", "Radius": 6.0, "Magn": "6.1", "Alpha": 0.49, "Date": "2013/10/30", "Prof": "10", "Id": "idVQEjrZfmu"}, {"Color": "#fd8d3c", "Time": "03:04:53", "Lon": "13.19", "Place": "Mar  di  Sicilia", "Lat": "36.729", "Radius": 11.0, "Magn": "2.9", "Alpha": 0.49, "Date": "2013/10/30", "Prof": "30.4", "Id": "idq6A9Lhm5m"}, {"Color": "#fecc5c", "Time": "05:46:15", "Lon": "15.489", "Place": "Stretto  di  Messina", "Lat": "37.872", "Radius": 11.0, "Magn": "2", "Alpha": 0.49, "Date": "2013/10/30", "Prof": "30.7", "Id": "idtN1DCJkGI"}, {"Color": "#fecc5c", "Time": "08:49:23", "Lon": "15.414", "Place": "Costa  calabra  occidentale", "Lat": "38.894", "Radius": 29.0, "Magn": "2.2", "Alpha": 0.49, "Date": "2013/10/30", "Prof": "216.6", "Id": "idC7hiK5KfO"}, {"Color": "#fecc5c", "Time": "13:06:10", "Lon": "9.237", "Place": "Appennino  ligure", "Lat": "44.602", "Radius": 6.0, "Magn": "2", "Alpha": 0.49, "Date": "2013/10/30", "Prof": "8.2", "Id": "idbPvBSAEKK"}, {"Color": "#fecc5c", "Time": "13:22:26", "Lon": "15.713", "Place": "Costa  calabra  occidentale", "Lat": "38.921", "Radius": 26.0, "Magn": "2.3", "Alpha": 0.49, "Date": "2013/10/30", "Prof": "169.9", "Id": "id629HI1i9n"}, {"Color": "#fd8d3c", "Time": "15:38:48", "Lon": "9.241", "Place": "Appennino  ligure", "Lat": "44.58", "Radius": 5.0, "Magn": "2.9", "Alpha": 0.49, "Date": "2013/10/30", "Prof": "6.1", "Id": "idxXXlMuSvV"}, {"Color": "#fd8d3c", "Time": "18:02:49", "Lon": "15.677", "Place": "Costa  calabra  occidentale", "Lat": "39.252", "Radius": 30.0, "Magn": "2.6", "Alpha": 0.49, "Date": "2013/10/30", "Prof": "224.3", "Id": "idqkdnFB2DX"}, {"Color": "#fd8d3c", "Time": "18:25:02", "Lon": "10.804", "Place": "Colline  Metallifere", "Lat": "43.172", "Radius": 5.0, "Magn": "2.6", "Alpha": 0.49, "Date": "2013/10/30", "Prof": "6.7", "Id": "idTuKOyBtl9"}, {"Color": "#fecc5c", "Time": "05:47:47", "Lon": "8.982", "Place": "Appennino  ligure", "Lat": "44.779", "Radius": 5.0, "Magn": "2.4", "Alpha": 0.51, "Date": "2013/10/31", "Prof": "7.2", "Id": "idQyPYC709M"}, {"Color": "#bd0026", "Time": "12:02:08", "Lon": "121.441", "Place": "Taiwan", "Lat": "23.591", "Radius": 6.0, "Magn": "6.6", "Alpha": 0.51, "Date": "2013/10/31", "Prof": "9.3", "Id": "idy1Ix4oNQl"}, {"Color": "#fecc5c", "Time": "12:22:51", "Lon": "12.535", "Place": "Bacino  di  Gubbio", "Lat": "43.349", "Radius": 5.0, "Magn": "2.2", "Alpha": 0.51, "Date": "2013/10/31", "Prof": "7", "Id": "idtIP76KM55"}, {"Color": "#fecc5c", "Time": "16:38:11", "Lon": "15.394", "Place": "Mar  Ionio", "Lat": "37.13", "Radius": 7.0, "Magn": "2.4", "Alpha": 0.51, "Date": "2013/10/31", "Prof": "10.7", "Id": "idCj0k6rHmv"}, {"Color": "#fd8d3c", "Time": "18:46:22", "Lon": "12.486", "Place": "Prealpi  venete", "Lat": "46.242", "Radius": 5.0, "Magn": "3.2", "Alpha": 0.51, "Date": "2013/10/31", "Prof": "5.8", "Id": "id9czgq7NYz"}, {"Color": "#fecc5c", "Time": "21:10:24", "Lon": "13.726", "Place": "Adriatico  centro-sett.", "Lat": "43.552", "Radius": 6.0, "Magn": "2", "Alpha": 0.51, "Date": "2013/10/31", "Prof": "9.6", "Id": "idF3zJ7f44A"}, {"Color": "#fd8d3c", "Time": "22:09:35", "Lon": "7.529", "Place": "Alpi  Marittime", "Lat": "43.988", "Radius": 6.0, "Magn": "3", "Alpha": 0.51, "Date": "2013/10/31", "Prof": "9.2", "Id": "id6ADErv9D2"}, {"Color": "#bd0026", "Time": "23:03:56", "Lon": "-71.7", "Place": "Near coast of central Chile", "Lat": "-30.31", "Radius": 6.0, "Magn": "6.5", "Alpha": 0.51, "Date": "2013/10/31", "Prof": "10", "Id": "id9AsPC5ASe"}, {"Color": "#fd8d3c", "Time": "00:08:41", "Lon": "13.856", "Place": "Madonie", "Lat": "37.747", "Radius": 2.0, "Magn": "3.1", "Alpha": 0.54, "Date": "2013/11/01", "Prof": "1", "Id": "idO09oHrbyi"}, {"Color": "#fecc5c", "Time": "01:54:31", "Lon": "13.856", "Place": "Madonie", "Lat": "37.717", "Radius": 5.0, "Magn": "2.2", "Alpha": 0.54, "Date": "2013/11/01", "Prof": "5.6", "Id": "idXUQIZerNE"}, {"Color": "#fd8d3c", "Time": "04:40:17", "Lon": "15.724", "Place": "Costa  calabra  occidentale", "Lat": "38.807", "Radius": 29.0, "Magn": "3.1", "Alpha": 0.54, "Date": "2013/11/01", "Prof": "211.2", "Id": "idz6XgfXRk9"}, {"Color": "#fecc5c", "Time": "06:52:30", "Lon": "13.673", "Place": "Monti  Sicani", "Lat": "37.579", "Radius": 6.0, "Magn": "2.2", "Alpha": 0.54, "Date": "2013/11/01", "Prof": "10.3", "Id": "idGxTH7fU6o"}, {"Color": "#fecc5c", "Time": "23:41:04", "Lon": "15.122", "Place": "Piana  del  Sele", "Lat": "40.592", "Radius": 4.0, "Magn": "2.3", "Alpha": 0.54, "Date": "2013/11/01", "Prof": "3.4", "Id": "idYqdsV3jim"}, {"Color": "#fecc5c", "Time": "03:32:08", "Lon": "10.112", "Place": "Prealpi  lombarde", "Lat": "45.517", "Radius": 4.0, "Magn": "2.3", "Alpha": 0.56, "Date": "2013/11/02", "Prof": "4.6", "Id": "idGPTeyDtU4"}, {"Color": "#fecc5c", "Time": "09:10:54", "Lon": "15.339", "Place": "Isole  Lipari", "Lat": "38.411", "Radius": 23.0, "Magn": "2.4", "Alpha": 0.56, "Date": "2013/11/02", "Prof": "131.6", "Id": "idD9Z5jHuhl"}, {"Color": "#fecc5c", "Time": "09:28:08", "Lon": "13.418", "Place": "Gran  Sasso", "Lat": "42.509", "Radius": 7.0, "Magn": "2", "Alpha": 0.56, "Date": "2013/11/02", "Prof": "12.1", "Id": "idmWEV0a6Hv"}, {"Color": "#fecc5c", "Time": "13:14:50", "Lon": "10.853", "Place": "Appennino  pistoiese", "Lat": "44.135", "Radius": 9.0, "Magn": "2.2", "Alpha": 0.56, "Date": "2013/11/02", "Prof": "19.5", "Id": "idYbV3FDWwF"}, {"Color": "#bd0026", "Time": "18:53:47", "Lon": "-172.642", "Place": "Tonga Islands region", "Lat": "-19.157", "Radius": 6.0, "Magn": "6.4", "Alpha": 0.56, "Date": "2013/11/02", "Prof": "10", "Id": "idXlIpZZcsR"}, {"Color": "#fecc5c", "Time": "19:14:35", "Lon": "16.349", "Place": "Costa  calabra  meridionale", "Lat": "38.355", "Radius": 13.0, "Magn": "2.1", "Alpha": 0.56, "Date": "2013/11/02", "Prof": "45.5", "Id": "id3y751q8O9"}, {"Color": "#fecc5c", "Time": "20:30:21", "Lon": "16.277", "Place": "La  Sila", "Lat": "39.046", "Radius": 6.0, "Magn": "2.1", "Alpha": 0.56, "Date": "2013/11/02", "Prof": "10", "Id": "idMT4isZMlH"}, {"Color": "#fecc5c", "Time": "06:49:12", "Lon": "15.434", "Place": "Golfi  di  Patti  e  di  Milazzo", "Lat": "38.363", "Radius": 21.0, "Magn": "2", "Alpha": 0.58, "Date": "2013/11/03", "Prof": "115.5", "Id": "idZS8zGCTEQ"}, {"Color": "#fd8d3c", "Time": "14:33:41", "Lon": "15.166", "Place": "Piana  del  Sele", "Lat": "40.594", "Radius": 3.0, "Magn": "2.7", "Alpha": 0.58, "Date": "2013/11/03", "Prof": "2.2", "Id": "idxMGdprlZm"}, {"Color": "#fecc5c", "Time": "14:57:38", "Lon": "15.127", "Place": "Piana  del  Sele", "Lat": "40.579", "Radius": 6.0, "Magn": "2", "Alpha": 0.58, "Date": "2013/11/03", "Prof": "8.1", "Id": "idhuyFfhEh6"}, {"Color": "#fecc5c", "Time": "21:42:44", "Lon": "8.29", "Place": "Switzerland", "Lat": "47.305", "Radius": 5.0, "Magn": "2.2", "Alpha": 0.58, "Date": "2013/11/03", "Prof": "7", "Id": "idGC1PcLNus"}, {"Color": "#fecc5c", "Time": "23:26:28", "Lon": "14.798", "Place": "Isole  Lipari", "Lat": "38.484", "Radius": 6.0, "Magn": "2.1", "Alpha": 0.58, "Date": "2013/11/03", "Prof": "8", "Id": "idPnc1NtamX"}, {"Color": "#fecc5c", "Time": "06:30:02", "Lon": "13.281", "Place": "Velino-Sirente", "Lat": "42.207", "Radius": 6.0, "Magn": "2.1", "Alpha": 0.61, "Date": "2013/11/04", "Prof": "9.1", "Id": "idE7hSzgF82"}, {"Color": "#fecc5c", "Time": "11:09:33", "Lon": "13.233", "Place": "Costa  marchig.  sett.  (Pesaro)", "Lat": "43.799", "Radius": 6.0, "Magn": "2", "Alpha": 0.61, "Date": "2013/11/04", "Prof": "9.8", "Id": "idhHTv8fJjW"}, {"Color": "#fecc5c", "Time": "20:59:14", "Lon": "11.102", "Place": "Pianura  padana  emiliana", "Lat": "44.885", "Radius": 4.0, "Magn": "2.1", "Alpha": 0.61, "Date": "2013/11/04", "Prof": "5", "Id": "id8a6S8fyMd"}, {"Color": "#fd8d3c", "Time": "00:20:42", "Lon": "12.532", "Place": "Bacino  di  Gubbio", "Lat": "43.384", "Radius": 6.0, "Magn": "3.2", "Alpha": 0.63, "Date": "2013/11/05", "Prof": "8.2", "Id": "idxldV7AyBG"}, {"Color": "#fd8d3c", "Time": "05:06:39", "Lon": "14.926", "Place": "Etna", "Lat": "37.656", "Radius": 9.0, "Magn": "3.1", "Alpha": 0.63, "Date": "2013/11/05", "Prof": "18.5", "Id": "idGHxyHBk8L"}, {"Color": "#fd8d3c", "Time": "05:07:50", "Lon": "14.926", "Place": "Etna", "Lat": "37.656", "Radius": 9.0, "Magn": "2.6", "Alpha": 0.63, "Date": "2013/11/05", "Prof": "18.5", "Id": "idWCcmfdDcN"}, {"Color": "#fd8d3c", "Time": "05:10:16", "Lon": "14.926", "Place": "Etna", "Lat": "37.656", "Radius": 9.0, "Magn": "3.4", "Alpha": 0.63, "Date": "2013/11/05", "Prof": "18.5", "Id": "idiQnGnUQmU"}, {"Color": "#fd8d3c", "Time": "05:16:10", "Lon": "14.926", "Place": "Etna", "Lat": "37.656", "Radius": 9.0, "Magn": "2.8", "Alpha": 0.63, "Date": "2013/11/05", "Prof": "18.5", "Id": "id2Pwm5V4Re"}, {"Color": "#fecc5c", "Time": "05:20:02", "Lon": "14.913", "Place": "Etna", "Lat": "37.686", "Radius": 10.0, "Magn": "2.1", "Alpha": 0.63, "Date": "2013/11/05", "Prof": "25", "Id": "idw8bJA0DFV"}, {"Color": "#fd8d3c", "Time": "05:21:46", "Lon": "14.926", "Place": "Etna", "Lat": "37.656", "Radius": 9.0, "Magn": "2.7", "Alpha": 0.63, "Date": "2013/11/05", "Prof": "18.5", "Id": "idL5YBCKaKz"}, {"Color": "#fd8d3c", "Time": "05:29:58", "Lon": "14.926", "Place": "Etna", "Lat": "37.656", "Radius": 9.0, "Magn": "2.9", "Alpha": 0.63, "Date": "2013/11/05", "Prof": "18.5", "Id": "id7FtB2jhpG"}, {"Color": "#fd8d3c", "Time": "05:33:04", "Lon": "14.926", "Place": "Etna", "Lat": "37.656", "Radius": 9.0, "Magn": "2.5", "Alpha": 0.63, "Date": "2013/11/05", "Prof": "18.5", "Id": "idh6Bbhb7UX"}, {"Color": "#fecc5c", "Time": "10:42:03", "Lon": "14.938", "Place": "Etna", "Lat": "37.709", "Radius": 7.0, "Magn": "2.4", "Alpha": 0.63, "Date": "2013/11/05", "Prof": "13.9", "Id": "idjgmn7m6Xq"}, {"Color": "#fecc5c", "Time": "15:26:52", "Lon": "14.909", "Place": "Etna", "Lat": "37.686", "Radius": 10.0, "Magn": "2.3", "Alpha": 0.63, "Date": "2013/11/05", "Prof": "24.9", "Id": "idVSjl5PYRV"}, {"Color": "#fecc5c", "Time": "16:42:56", "Lon": "14.92", "Place": "Etna", "Lat": "37.685", "Radius": 8.0, "Magn": "2", "Alpha": 0.63, "Date": "2013/11/05", "Prof": "17.4", "Id": "idwtGyZcNCR"}, {"Color": "#fd8d3c", "Time": "17:25:23", "Lon": "16.01", "Place": "Pollino", "Lat": "39.877", "Radius": 6.0, "Magn": "2.8", "Alpha": 0.63, "Date": "2013/11/05", "Prof": "8.3", "Id": "idPj2aGnSEO"}, {"Color": "#fd8d3c", "Time": "17:26:45", "Lon": "16.004", "Place": "Pollino", "Lat": "39.863", "Radius": 5.0, "Magn": "3.3", "Alpha": 0.63, "Date": "2013/11/05", "Prof": "7.2", "Id": "idEkOk2TvPE"}, {"Color": "#fecc5c", "Time": "17:38:34", "Lon": "14.793", "Place": "Monti  Nebrodi", "Lat": "38.005", "Radius": 5.0, "Magn": "2.2", "Alpha": 0.63, "Date": "2013/11/05", "Prof": "7.4", "Id": "id32wRHrHJ0"}, {"Color": "#fecc5c", "Time": "23:20:54", "Lon": "14.794", "Place": "Monti  Nebrodi", "Lat": "38.004", "Radius": 5.0, "Magn": "2.3", "Alpha": 0.63, "Date": "2013/11/05", "Prof": "7.4", "Id": "idzs0XBiULN"}, {"Color": "#fecc5c", "Time": "00:39:18", "Lon": "12.53", "Place": "Bacino  di  Gubbio", "Lat": "43.379", "Radius": 6.0, "Magn": "2.4", "Alpha": 0.65, "Date": "2013/11/06", "Prof": "8.5", "Id": "idBMpfNqPDI"}, {"Color": "#fecc5c", "Time": "00:59:28", "Lon": "14.888", "Place": "Irpinia", "Lat": "40.797", "Radius": 6.0, "Magn": "2", "Alpha": 0.65, "Date": "2013/11/06", "Prof": "9.1", "Id": "id8IwmvqOx2"}, {"Color": "#fecc5c", "Time": "04:31:00", "Lon": "14.912", "Place": "Etna", "Lat": "37.703", "Radius": 8.0, "Magn": "2.4", "Alpha": 0.65, "Date": "2013/11/06", "Prof": "17", "Id": "idU6BxJj8FM"}, {"Color": "#fecc5c", "Time": "04:44:00", "Lon": "14.913", "Place": "Etna", "Lat": "37.718", "Radius": 8.0, "Magn": "2.2", "Alpha": 0.65, "Date": "2013/11/06", "Prof": "16", "Id": "idStjiZXgZK"}, {"Color": "#fecc5c", "Time": "04:45:00", "Lon": "14.929", "Place": "Etna", "Lat": "37.728", "Radius": 7.0, "Magn": "2.3", "Alpha": 0.65, "Date": "2013/11/06", "Prof": "12", "Id": "idP6asSusdD"}, {"Color": "#fd8d3c", "Time": "00:55:48", "Lon": "15.602", "Place": "Costa  calabra  occidentale", "Lat": "38.754", "Radius": 25.0, "Magn": "2.6", "Alpha": 0.68, "Date": "2013/11/07", "Prof": "157.8", "Id": "idBLM5TsKTe"}, {"Color": "#fd8d3c", "Time": "04:17:23", "Lon": "11.267", "Place": "Pianura  padana  emiliana", "Lat": "44.874", "Radius": 4.0, "Magn": "2.7", "Alpha": 0.7, "Date": "2013/11/08", "Prof": "3.1", "Id": "ideafpihQrC"}, {"Color": "#fecc5c", "Time": "04:36:43", "Lon": "11.297", "Place": "Pianura  padana  emiliana", "Lat": "44.844", "Radius": 4.0, "Magn": "2", "Alpha": 0.7, "Date": "2013/11/08", "Prof": "5", "Id": "ideeV8Au03G"}]